name,longitude,latitude,phone,address,district,city,area,zipcodetype,datatype,date,creator,source,index
味源·蜀香坊,102.74920999999999,24.96353,,,,,,,,,,,3,6315
云桥园世纪城店,102.74983,24.96312,,,,,,,,,,,3,9526
瑞云园,102.74945,24.96335,,,,,,,,,,,3,14285
味源·蜀香坊,102.74920999999999,24.96333,,,,,,,,,,,3,19082
云桥园世纪城店,102.74983,24.96292,,,,,,,,,,,3,22293
瑞云园,102.74945,24.96315,,,,,,,,,,,3,27052
一心堂世纪城商业街连锁店,102.74972,24.962987,,,,,,,,,,,3,37061
健之佳健康药房NO．148,102.749646,24.963028,,,,,,,,,,,3,38178
