name,longitude,latitude,phone,address,district,city,area,zipcodetype,datatype,date,creator,source,index
云南远安昆星汽车维修有限公司,102.75345,25.077647,,,,,,,,,,,1,882
润颜美容,102.75395,25.07815,,,,,,,,,,,3,31246
秀魅阁经络瘦身养生会所,102.75383000000001,25.07822,,,,,,,,,,,3,31434
电气石细胞浴养生馆,102.7538,25.077820000000003,,,,,,,,,,,3,32667
盘龙启明诊所,102.75388199999999,25.077914,,,,,,,,,,,3,37183
云南远安昆星汽车维修有限公司,102.75345,25.077847,,,,,,,,,,,1,48081
