name,longitude,latitude,phone,address,district,city,area,zipcodetype,datatype,date,creator,source,index
靓颖SPA生活馆,102.69415,25.02668,,,,,,,,,,,3,16735
福旺园,102.69405,25.027379999999997,,,,,,,,,,,3,23725
威娜专业发型机构,102.69404,25.02739,,,,,,,,,,,3,29307
靓颖SPA生活馆,102.69415,25.02648,,,,,,,,,,,3,29502
剪之尚烫染机构,102.69429000000001,25.02709,,,,,,,,,,,3,30706
晓雪美发厅,102.69418,25.02655,,,,,,,,,,,3,34331
