name,longitude,latitude,phone,address,district,city,area,zipcodetype,datatype,date,creator,source,index
禄劝县财政局转龙财政所,102.856216,25.904516,,,,,,,,,,,3,41649
转龙新活堂药房,102.85518,25.905685000000002,,,,,,,,,,,3,37993
春风大药房,102.85470600000001,25.905791,,,,,,,,,,,3,38077
太阳鸟药业公司了源药店,102.854737,25.906131,,,,,,,,,,,3,38201
转龙镇恒泰大药房,102.855905,25.905094000000002,,,,,,,,,,,3,38820
禄劝县工商局转龙工商所,102.85613000000001,25.904689,,,,,,,,,,,3,42792
