name,longitude,latitude,phone,address,district,city,area,zipcodetype,datatype,date,creator,source,index
永定加油站,102.507665,25.218073999999998,,,,,,,,,,,3,4992
永定加油站,102.507665,25.217874,,,,,,,,,,,3,17759
富民博爱门诊部,102.507067,25.217796,,,,,,,,,,,3,37249
富民县农业局,102.507729,25.218501,,,,,,,,,,,3,41527
富民县政府政务服务中心,102.507049,25.218204,,,,,,,,,,,3,41692
金宝贝幼儿园,102.50675799999999,25.217766,,,,,,,,,,,3,44752
