name,longitude,latitude,phone,address,district,city,area,zipcodetype,datatype,date,creator,source,index
弘来堂药房,103.063884,25.226843,,,,,,,,,,,3,36959
杨林兰鹤平价药房,103.063558,25.227238,,,,,,,,,,,3,37970
明林诊所,103.065127,25.226823,,,,,,,,,,,3,36142
好医生连锁药房兰公济民店,103.066055,25.226571,,,,,,,,,,,3,36243
百姓实惠药房,103.064684,25.227231,,,,,,,,,,,3,38599
杨林公路管理所,103.06512099999999,25.226492,,,,,,,,,,,3,42770
