name,longitude,latitude,phone,address,district,city,area,zipcodetype,datatype,date,creator,source,index
月牙潭公园东门,102.72738000000001,25.09005,,,,,,,,,,,3,33174
云南省高校教师住宅小区,102.72835,25.091158,,,,,,,,,,,1,1017
随意酒吧,102.72798,25.091454000000002,,,,,,,,,,,1,2020
芙蓉榭,102.727899,25.090803,,,,,,,,,,,3,40714
悬月亭,102.728689,25.09134,,,,,,,,,,,3,41121
云南省高校教师住宅小区,102.72835,25.091358,,,,,,,,,,,1,48216
