name,longitude,latitude,phone,address,district,city,area,zipcodetype,datatype,date,creator,source,index
边防整形美容,102.68599,25.028129999999997,,,,,,,,,,,3,32022
四季春酒楼旗舰店,102.68587,25.026699999999998,,,,,,,,,,,3,13320
警民餐厅,102.68551,25.0274,,,,,,,,,,,3,15534
四季春酒楼旗舰店,102.68587,25.0265,,,,,,,,,,,3,26087
警民餐厅,102.68551,25.0272,,,,,,,,,,,3,28301
凯华口腔,102.68634,25.027870999999998,,,,,,,,,,,3,37186
昆明市五华区档案服务大厅,102.68618599999999,25.027957999999998,,,,,,,,,,,3,41941
