name,longitude,latitude,phone,address,district,city,area,zipcodetype,datatype,date,creator,source,index
主流顶级烫染沙龙,102.73313,25.05949,,,,,,,,,,,3,30662
斑婕玛皮肤修复中心,102.73331,25.05967,,,,,,,,,,,3,32005
云南妇女儿童医院,102.732843,25.059843,,,,,,,,,,,3,36525
佳豪酒店,102.73268,25.05965,,,,,,,,,,,3,39822
云南省农村信用社ATM,102.7332,25.05957,,,,,,,,,,,3,46689
