name,longitude,latitude,phone,address,district,city,area,zipcodetype,datatype,date,creator,source,index
贵迎山庄,102.63245,24.94932,,,,,,,,,,,3,31888
骏雨农庄,102.63138000000001,24.94963,,,,,,,,,,,3,16242
骏雨农庄,102.63138000000001,24.94943,,,,,,,,,,,3,29009
锦绣园农家乐,102.63062,24.94997,,,,,,,,,,,3,30675
腾云楼,102.63113,24.949579999999997,,,,,,,,,,,3,30676
吉祥园,102.63229,24.94959,,,,,,,,,,,3,30802
