name,longitude,latitude,phone,address,district,city,area,zipcodetype,datatype,date,creator,source,index
佳宏源网络,102.7994,24.88784,,,,,,,,,,,3,30734
呈贡森源药业益民药房,102.800116,24.887636999999998,,,,,,,,,,,3,35636
柳林园快捷酒店,102.80004,24.887729999999998,,,,,,,,,,,3,39752
昆明市呈贡区委老干部局,102.800249,24.887517000000003,,,,,,,,,,,3,42233
呈贡区龙城街道为民服务中心,102.800249,24.887517000000003,,,,,,,,,,,3,42814
农村信用社ATM,102.79999000000001,24.88785,,,,,,,,,,,3,45952
