name,longitude,latitude,phone,address,district,city,area,zipcodetype,datatype,date,creator,source,index
永州之野,102.71644,25.069679999999998,,,,,,,,,,,3,10394
百合天心,102.71723,25.06935,,,,,,,,,,,3,11802
永州之野,102.71644,25.06948,,,,,,,,,,,3,23161
百合天心,102.71723,25.06915,,,,,,,,,,,3,24569
云县山地乌鸡米线滨江店,102.71669,25.06949,,,,,,,,,,,3,24949
法国菲茨有机美容中心,102.71704,25.06918,,,,,,,,,,,3,31887
新偶像造型,102.71675,25.069029999999998,,,,,,,,,,,3,34512
