name,longitude,latitude,phone,address,district,city,area,zipcodetype,datatype,date,creator,source,index
昆明东大肛肠医院,102.716165,25.02346,,,,,,,,,,,3,35628
盘江老妞重庆火锅坊,102.71676,25.02434,,,,,,,,,,,3,10720
盘江老妞重庆火锅坊,102.71676,25.02414,,,,,,,,,,,3,23487
莫泰酒店昆明火车站环城南路店,102.71712,25.024160000000002,,,,,,,,,,,3,39083
盘江集团昆明办事处招待所,102.71676,25.02414,,,,,,,,,,,3,39856
黄瓜营小区(永明路),102.716509,25.022468,,,,,,,,,,,1,3624
怡和茶室,102.71651,25.02301,,,,,,,,,,,3,33863
