name,longitude,latitude,phone,address,district,city,area,zipcodetype,datatype,date,creator,source,index
寻甸县财政局仁德财政所,103.258595,25.566807999999998,,,,,,,,,,,3,42083
祥和医院,103.25820300000001,25.567707000000002,,,,,,,,,,,3,37256
好医生连锁药房福康连锁店,103.25790400000001,25.567647,,,,,,,,,,,3,38857
寻甸县公安局交警大队城市中队,103.25829300000001,25.567169,,,,,,,,,,,3,41860
中国人民银行寻甸支行,103.259209,25.566432,,,,,,,,,,,3,42502
