name,longitude,latitude,phone,address,district,city,area,zipcodetype,datatype,date,creator,source,index
西山区向长青诊所,102.704255,25.004217,,,,,,,,,,,3,35251
昆明市官庄影剧院,102.7056,25.00408,,,,,,,,,,,3,33454
东骏大药房老海埂路连锁店,102.705763,25.004037,,,,,,,,,,,3,36098
前卫老海埂社区卫生站,102.705196,25.004433,,,,,,,,,,,3,36555
西山区康健官庄诊所,102.706128,25.0038,,,,,,,,,,,3,37313
昆明市公安局西山分局前卫派出所,102.706231,25.003716,,,,,,,,,,,3,41835
木宝婴幼园,102.70384200000001,25.004455,,,,,,,,,,,3,43347
未来之星幼儿园,102.704699,25.00491,,,,,,,,,,,3,44351
