name,longitude,latitude,phone,address,district,city,area,zipcodetype,datatype,date,creator,source,index
梵迪国际美斯丹顿美容养生华都店,102.71246,24.97325,,,,,,,,,,,3,32529
华都靓粥面点,102.71158,24.973679999999998,,,,,,,,,,,3,11747
华都靓粥面点,102.71158,24.97348,,,,,,,,,,,3,24514
名城国际专业美容美发会所,102.71112,24.9732,,,,,,,,,,,3,31178
度假区金河卫生所,102.711267,24.973176000000002,,,,,,,,,,,3,35342
康益佳华都药房,102.712515,24.973482999999998,,,,,,,,,,,3,35873
刘氏诊所,102.712592,24.973489999999998,,,,,,,,,,,3,36264
七彩艺术培训学校华都分校,102.7125,24.973244,,,,,,,,,,,3,45073
