name,longitude,latitude,phone,address,district,city,area,zipcodetype,datatype,date,creator,source,index
寻甸县地税局五分局,102.927706,25.766621,,,,,,,,,,,3,41924
倘甸镇第二人民医院,102.928925,25.766555,,,,,,,,,,,3,36339
昆明市公安局轿子山旅游开发区分局,102.92833399999999,25.766798,,,,,,,,,,,3,41607
倘甸交通运政管理站,102.927154,25.76699,,,,,,,,,,,3,42306
小太阳幼儿园,102.92715600000001,25.766695000000002,,,,,,,,,,,3,43645
