name,longitude,latitude,phone,address,district,city,area,zipcodetype,datatype,date,creator,source,index
天门神烛,103.327924,24.810126,,,,,,,,,,,3,40653
漫步从容,103.328608,24.810091,,,,,,,,,,,3,40693
母子偕游,103.32859,24.810016,,,,,,,,,,,3,40704
李子园箐景区,103.328616,24.811332,,,,,,,,,,,3,40648
望夫石,103.328168,24.811557,,,,,,,,,,,3,40666
喀斯特漏斗,103.32814599999999,24.810827,,,,,,,,,,,3,41029
苏武牧羊,103.328415,24.81097,,,,,,,,,,,3,41119
