name,longitude,latitude,phone,address,district,city,area,zipcodetype,datatype,date,creator,source,index
安宁禄脿医院,102.266423,24.963191000000002,,,,,,,,,,,3,38701
杏和药店,102.267514,24.963327,,,,,,,,,,,3,36192
翌诚药店,102.266695,24.963553,,,,,,,,,,,3,37039
安宁便民药店,102.266747,24.963893,,,,,,,,,,,3,37136
安宁市财政局禄脿财政所,102.267674,24.96345,,,,,,,,,,,3,41604
禄表中学,102.26799100000001,24.963797,,,,,,,,,,,3,45599
