name,longitude,latitude,phone,address,district,city,area,zipcodetype,datatype,date,creator,source,index
石林医药公司一门市,103.266213,24.758744,,,,,,,,,,,3,36802
石林县济仁堂药店,103.26520500000001,24.758491,,,,,,,,,,,3,35739
宏图康复诊所,103.264899,24.758882,,,,,,,,,,,3,38501
武庙,103.265025,24.75776,,,,,,,,,,,3,40933
石林县童星幼儿园,103.266003,24.758649,,,,,,,,,,,3,44292
