name,longitude,latitude,phone,address,district,city,area,zipcodetype,datatype,date,creator,source,index
嵩明同心堂药店,103.045694,25.336805,,,,,,,,,,,3,35734
嵩明县人民医院－急诊科,103.045118,25.337108999999998,,,,,,,,,,,3,35795
嵩明杏林中医药店,103.045503,25.336588,,,,,,,,,,,3,35973
康舒源大药房,103.04520500000001,25.336167,,,,,,,,,,,3,37953
嵩明恒吉药房,103.044862,25.336411,,,,,,,,,,,3,38139
