name,longitude,latitude,phone,address,district,city,area,zipcodetype,datatype,date,creator,source,index
你猜吧,102.75307,25.059929999999998,,,,,,,,,,,3,32118
彝人部落牛汤锅西南林大店,102.75301,25.060879999999997,,,,,,,,,,,3,13600
彝人部落牛汤锅西南林大店,102.75301,25.060679999999998,,,,,,,,,,,3,26367
阿司匹林,102.75307,25.06,,,,,,,,,,,3,32799
小酒窝,102.75303000000001,25.06054,,,,,,,,,,,3,34545
中华麟BAR,102.7531,25.05985,,,,,,,,,,,3,33906
