name,longitude,latitude,phone,address,district,city,area,zipcodetype,datatype,date,creator,source,index
云南省测绘工程院,102.67912,25.058641,,,,,,,,,,,3,42936
中医骨伤科诊所,102.678218,25.060108,,,,,,,,,,,3,35548
昆明市虹山派出所,102.678474,25.059264000000002,,,,,,,,,,,3,42164
艺翔艺术培训中心,102.678344,25.059729,,,,,,,,,,,3,43483
虹山幼儿园,102.679563,25.058585,,,,,,,,,,,3,43084
