name,longitude,latitude,phone,address,district,city,area,zipcodetype,datatype,date,creator,source,index
福泉园,102.66266999999999,25.16199,,,,,,,,,,,3,14940
福泉园,102.66266999999999,25.16179,,,,,,,,,,,3,27707
野山药火腿鸡风干腊排骨美食城,102.66278,25.16082,,,,,,,,,,,3,13094
野山药火腿鸡风干腊排骨美食城,102.66278,25.16062,,,,,,,,,,,3,25861
沙朗医院,102.66282700000001,25.161566,,,,,,,,,,,3,37577
昆明市五华区政府西翥街道办事处,102.66327,25.160041,,,,,,,,,,,3,42692
农村信用社东大分社,102.66278,25.160420000000002,,,,,,,,,,,3,46976
