name,longitude,latitude,phone,address,district,city,area,zipcodetype,datatype,date,creator,source,index
垂直秀美发,102.72842,25.054779999999997,,,,,,,,,,,3,31593
新迅网网城,102.72788,25.05484,,,,,,,,,,,3,32606
金源动漫城,102.72785,25.05481,,,,,,,,,,,3,32962
一心堂穿金路连锁NO．3,102.728084,25.055044,,,,,,,,,,,3,36130
滇月宾馆穿金店,102.72845,25.05482,,,,,,,,,,,3,40126
富滇银行昆明华山支行,102.72838,25.05473,,,,,,,,,,,3,46226
