name,longitude,latitude,phone,address,district,city,area,zipcodetype,datatype,date,creator,source,index
新册兴隆牛菜馆（二分店）,102.8465,24.86601,,,,,,,,,,,3,7829
大红袍辣子鸡,102.84687,24.865979999999997,,,,,,,,,,,3,10809
源茂园羊肉馆,102.8471,24.86599,,,,,,,,,,,3,11858
新册兴隆牛菜馆（二分店）,102.8465,24.86581,,,,,,,,,,,3,20596
大红袍辣子鸡,102.84687,24.865779999999997,,,,,,,,,,,3,23576
滇蜀人家,102.84626999999999,24.86584,,,,,,,,,,,3,23682
源茂园羊肉馆,102.8471,24.86579,,,,,,,,,,,3,24625
水云间KTV,102.84676,24.86579,,,,,,,,,,,3,31751
