name,longitude,latitude,phone,address,district,city,area,zipcodetype,datatype,date,creator,source,index
昆明市太和街道办,102.72457,25.025615,,,,,,,,,,,3,41836
兰州拉面,102.72515,25.026989999999998,,,,,,,,,,,3,15341
潘家食馆,102.72463,25.02695,,,,,,,,,,,3,19210
兰州拉面,102.72515,25.02679,,,,,,,,,,,3,28108
首艺佳美时尚美发连锁形象店,102.72515,25.026510000000002,,,,,,,,,,,3,30371
如家快捷酒店春城路店,102.72535,25.02647,,,,,,,,,,,3,39045
如意旅社,102.72453,25.02649,,,,,,,,,,,3,39455
