name,longitude,latitude,phone,address,district,city,area,zipcodetype,datatype,date,creator,source,index
鑫悦养生会所,102.71654000000001,25.05996,,,,,,,,,,,3,30649
胖子发型专业设计,102.7166,25.05994,,,,,,,,,,,3,32008
昆明动物园,102.715572,25.059534,,,,,,,,,,,1,3207
雅淇造型专业烫染,102.71627,25.06,,,,,,,,,,,3,32207
康鑫足疗,102.71642,25.05997,,,,,,,,,,,3,32270
虹桥幼儿园,102.715111,25.060009,,,,,,,,,,,3,42924
