name,longitude,latitude,phone,address,district,city,area,zipcodetype,datatype,date,creator,source,index
鲜果冷饮吧,102.66003,24.9676,,,,,,,,,,,3,10119
滇池海埂公园(西门),102.659896,24.96623,,,,,,,,,,,1,4166
民族餐厅,102.65959000000001,24.96705,,,,,,,,,,,3,6770
民族餐厅,102.65959000000001,24.96685,,,,,,,,,,,3,19537
满族院,102.659688,24.966131,,,,,,,,,,,3,41102
滇池大舞台,102.66020999999999,24.96763,,,,,,,,,,,3,17093
鲜果冷饮吧,102.66003,24.9674,,,,,,,,,,,3,22886
滇池大舞台,102.66020999999999,24.96743,,,,,,,,,,,3,29860
