name,longitude,latitude,phone,address,district,city,area,zipcodetype,datatype,date,creator,source,index
石林顺达加油站,103.321291,24.837241,,,,,,,,,,,3,4915
石林顺达加油站,103.321291,24.837041,,,,,,,,,,,3,17682
石林县石林风景区管理局,103.321023,24.836867,,,,,,,,,,,3,41735
石林武术学校,103.321724,24.836886,,,,,,,,,,,3,45088
石林镇成人文化技校学校,103.321724,24.836886,,,,,,,,,,,3,45564
石林汽车客运站,103.321081,24.836736,,,,,,,,,,,3,45719
