name,longitude,latitude,phone,address,district,city,area,zipcodetype,datatype,date,creator,source,index
段增贵骨科诊所,103.149233,24.924048000000003,,,,,,,,,,,3,37686
蓬莱医疗点,103.149373,24.923164,,,,,,,,,,,3,37804
永民药店,103.149344,24.924353,,,,,,,,,,,3,38826
汪福德诊所,103.14921700000001,24.923919,,,,,,,,,,,3,38895
宜良县建设管理中心,103.149778,24.924317000000002,,,,,,,,,,,3,41848
宜良农民科技教育培训中心,103.149388,24.923199,,,,,,,,,,,3,43546
云南省农业广播电视学校宜良县分校,103.149388,24.923199,,,,,,,,,,,3,44899
