name,longitude,latitude,phone,address,district,city,area,zipcodetype,datatype,date,creator,source,index
鑫玉饭店,102.67291,25.05821,,,,,,,,,,,3,12929
燕氏米汤饭,102.67211999999999,25.05765,,,,,,,,,,,3,12036
燕氏米汤饭,102.67211999999999,25.05745,,,,,,,,,,,3,24803
鑫玉饭店,102.67291,25.05801,,,,,,,,,,,3,25696
本草记传奇养生,102.67201,25.057660000000002,,,,,,,,,,,3,32886
都市夜归人,102.67198,25.0572,,,,,,,,,,,3,34081
昆明英语口语学校,102.671838,25.056897,,,,,,,,,,,3,45486
