name,longitude,latitude,phone,address,district,city,area,zipcodetype,datatype,date,creator,source,index
花溪牛肉米线,102.6951,25.05442,,,,,,,,,,,3,11642
哈鲜族,102.69505,25.05455,,,,,,,,,,,3,13321
Oｐａ台球会所,102.69504,25.0545,,,,,,,,,,,3,16548
博仁堂,102.695279,25.053928,,,,,,,,,,,3,24949
福荣餐厅,102.69501,25.05446,,,,,,,,,,,3,39342
花溪牛肉米线,102.6951,25.05422,,,,,,,,,,,3,41431
哈鲜族,102.69505,25.05435,,,,,,,,,,,3,43110
唐会小黄牛带皮牛肉米线建设店,102.69501,25.05443,,,,,,,,,,,3,43708
Oｐａ台球会所,102.69504,25.0543,,,,,,,,,,,3,46337
