name,longitude,latitude,phone,address,district,city,area,zipcodetype,datatype,date,creator,source,index
17．5昆明今典影城官渡区世纪城店,102.76191999999999,24.977339999999998,,,,,,,,,,,3,48458
诺亚金洲·大剧院,102.7606,24.97722,,,,,,,,,,,3,16879
中国光大银行ATM,102.76106999999999,24.97767,,,,,,,,,,,3,33843
交通银行ATM,102.76102,24.977249999999998,,,,,,,,,,,3,34199
中信银行昆明世纪城支行,102.75984,24.97665,,,,,,,,,,,3,34295
诺亚金洲·大剧院,102.7606,24.97702,,,,,,,,,,,3,46668
中国光大银行ATM,102.76106999999999,24.97747,,,,,,,,,,,3,63632
交通银行ATM,102.76102,24.97705,,,,,,,,,,,3,63988
