name,longitude,latitude,phone,address,district,city,area,zipcodetype,datatype,date,creator,source,index
瑞奇德国际医院,102.742666,25.092485,,,,,,,,,,,1,66449
一心堂金安小区连锁店,102.741435,25.092254999999998,,,,,,,,,,,3,24146
云南省政府办公厅圆通幼儿园金江校区,102.742174,25.092617999999998,,,,,,,,,,,3,30899
立康药房江东店,102.741031,25.091283999999998,,,,,,,,,,,1,2683
一心堂金安小区连锁店,102.741435,25.092055,,,,,,,,,,,3,53935
爱芝源跆拳道训练中心,102.741128,25.092169000000002,,,,,,,,,,,3,62141
立康药房江东店,102.741031,25.091483999999998,,,,,,,,,,,1,66904
云南省政府办公厅圆通幼儿园金江校区,102.742174,25.092418,,,,,,,,,,,3,60688
