name,longitude,latitude,phone,address,district,city,area,zipcodetype,datatype,date,creator,source,index
昆明市公安局栗树头派出所,102.72714599999999,25.052897,,,,,,,,,,,3,59304
云南省电力设计院,102.72601800000001,25.052598,,,,,,,,,,,3,32390
招商银行ATM,102.72615,25.05275,,,,,,,,,,,3,34099
匠人组合美发机构穿金店,102.72634000000001,25.05273,,,,,,,,,,,3,51410
金榜名艺,102.72853,25.0528,,,,,,,,,,,3,18084
金榜名艺,102.72853,25.0526,,,,,,,,,,,3,47873
云南省扶贫办,102.727924,25.052898000000003,,,,,,,,,,,3,59114
