name,longitude,latitude,phone,address,district,city,area,zipcodetype,datatype,date,creator,source,index
芯逸足疗馆,102.67439,25.041520000000002,,,,,,,,,,,3,16718
棕树营小学,102.674715,25.041656,,,,,,,,,,,3,32564
阿政食府春苑店,102.67471,25.0418,,,,,,,,,,,3,38307
蒸好吃浏阳蒸菜馆,102.67473000000001,25.04185,,,,,,,,,,,3,45085
芯逸足疗馆,102.67439,25.041320000000002,,,,,,,,,,,3,46507
西山区向联诊所,102.674425,25.04158,,,,,,,,,,,3,52398
棕树营小学,102.674715,25.041456,,,,,,,,,,,3,62353
