name,longitude,latitude,phone,address,district,city,area,zipcodetype,datatype,date,creator,source,index
宜良红房子妇科医院,103.148928,24.922454000000002,,,,,,,,,,,3,24753
宜良县畜牧局,103.14879499999999,24.922057,,,,,,,,,,,3,29375
宜良红房子妇科医院,103.148928,24.922254000000002,,,,,,,,,,,3,54542
蓬莱医疗点,103.149373,24.923164,,,,,,,,,,,3,54826
宜良县畜牧局,103.14879499999999,24.921857,,,,,,,,,,,3,59164
宜良农民科技教育培训中心,103.149388,24.923199,,,,,,,,,,,3,60568
云南省农业广播电视学校宜良县分校,103.149388,24.923199,,,,,,,,,,,3,61921
