name,longitude,latitude,phone,address,district,city,area,zipcodetype,datatype,date,creator,source,index
云水遥温泉会所,102.75761999999999,24.96204,,,,,,,,,,,3,17516
福建沙县营养小吃,102.75717,24.96118,,,,,,,,,,,3,5331
粗茶淡饭,102.756,24.96118,,,,,,,,,,,3,5160
宣威烧烤,102.75657,24.960539999999998,,,,,,,,,,,3,6654
丽傣餐厅,102.7556,24.96119,,,,,,,,,,,3,7840
万家海鲜楼,102.75616,24.96138,,,,,,,,,,,3,8071
矮哥厨房,102.75579,24.96097,,,,,,,,,,,3,8308
锦元商务酒店－餐厅,102.75672,24.961199999999998,,,,,,,,,,,3,9498
保山永昌火瓢牛肉,102.7563,24.96127,,,,,,,,,,,3,9934
金诺郎韩式养生烤肉,102.75657,24.96166,,,,,,,,,,,3,10639
神迹足道养生会馆,102.75656,24.96166,,,,,,,,,,,3,17792
天罗地网网城,102.75679000000001,24.96146,,,,,,,,,,,3,17989
皇马国际娱乐,102.75568,24.96183,,,,,,,,,,,3,18013
锦源休闲会所,102.75591,24.96167,,,,,,,,,,,3,18303
棕榈滩水疗会所,102.75663,24.96164,,,,,,,,,,,3,18878
世纪银都美食娱乐休闲广场,102.75581,24.96192,,,,,,,,,,,3,19678
伯爵金座,102.75657,24.96165,,,,,,,,,,,3,20545
魅力金座娱乐会所,102.75516,24.96124,,,,,,,,,,,3,22183
汇宝网吧,102.75628,24.96047,,,,,,,,,,,3,22360
御晟酒店,102.75574,24.96053,,,,,,,,,,,3,26853
麦肯道快捷酒店,102.75591,24.96167,,,,,,,,,,,3,27086
福波宾馆NO．1,102.75662,24.96097,,,,,,,,,,,3,27292
昆明官渡农村合作银行ATM,102.75576,24.96185,,,,,,,,,,,3,33946
粗茶淡饭,102.756,24.96098,,,,,,,,,,,3,34949
丽傣餐厅,102.7556,24.96099,,,,,,,,,,,3,37629
万家海鲜楼,102.75616,24.96118,,,,,,,,,,,3,37860
矮哥厨房,102.75579,24.96077,,,,,,,,,,,3,38097
锦元商务酒店－餐厅,102.75672,24.961,,,,,,,,,,,3,39287
保山永昌火瓢牛肉,102.7563,24.96107,,,,,,,,,,,3,39723
金诺郎韩式养生烤肉,102.75657,24.96146,,,,,,,,,,,3,40428
神迹足道养生会馆,102.75656,24.96146,,,,,,,,,,,3,47581
天罗地网网城,102.75679000000001,24.96126,,,,,,,,,,,3,47778
皇马国际娱乐,102.75568,24.96163,,,,,,,,,,,3,47802
世纪大澡堂,102.75623,24.962020000000003,,,,,,,,,,,3,47803
锦源休闲会所,102.75591,24.961470000000002,,,,,,,,,,,3,48092
棕榈滩水疗会所,102.75663,24.96144,,,,,,,,,,,3,48667
世纪银都美食娱乐休闲广场,102.75581,24.96172,,,,,,,,,,,3,49467
伯爵金座,102.75657,24.96145,,,,,,,,,,,3,50334
魅力金座娱乐会所,102.75516,24.96104,,,,,,,,,,,3,51972
御晟酒店,102.75574,24.96033,,,,,,,,,,,3,56642
麦肯道快捷酒店,102.75591,24.961470000000002,,,,,,,,,,,3,56875
福波宾馆NO．1,102.75662,24.96077,,,,,,,,,,,3,57081
昆明官渡农村合作银行ATM,102.75576,24.96165,,,,,,,,,,,3,63735
盛鑫饭店,102.75726999999999,24.96125,,,,,,,,,,,3,6676
亿饮,102.75768000000001,24.96153,,,,,,,,,,,3,6677
陈氏香鹅掌昆明店,102.75699,24.96196,,,,,,,,,,,3,7848
重庆一品串串香,102.75738,24.96112,,,,,,,,,,,3,7963
云兴源小吃,102.75726999999999,24.96104,,,,,,,,,,,3,8309
随忆烤鱼,102.75735,24.96109,,,,,,,,,,,3,8526
世纪·花园火锅,102.75708,24.96116,,,,,,,,,,,3,10167
味在其中农家菜,102.75721999999999,24.96122,,,,,,,,,,,3,13736
民间瓦罐煨汤,102.75707,24.96141,,,,,,,,,,,3,14181
剪尚秀美发工作室,102.75703,24.960579999999997,,,,,,,,,,,3,17148
双泉沐浴,102.75754,24.961199999999998,,,,,,,,,,,3,17241
鸿华美容美体养生馆NO．19024,102.75763,24.96174,,,,,,,,,,,3,18894
独品造型,102.75715,24.9615,,,,,,,,,,,3,19199
美味缘火锅店,102.75761999999999,24.95981,,,,,,,,,,,3,5154
正宗昭通酸菜猪脚火锅,102.75764000000001,24.959039999999998,,,,,,,,,,,3,8310
云秀书院,102.75624300000001,24.959512,,,,,,,,,,,1,857
的士之家自助快餐,102.75673,24.959979999999998,,,,,,,,,,,3,11422
吉亨宾馆,102.75666,24.96005,,,,,,,,,,,3,27417
宣威烧烤,102.75657,24.96034,,,,,,,,,,,3,36443
的士之家自助快餐,102.75673,24.95978,,,,,,,,,,,3,41211
美妆阁造型工作室,102.75683000000001,24.96007,,,,,,,,,,,3,45868
顶尚美NO．2,102.7568,24.96011,,,,,,,,,,,3,46431
汇宝网吧,102.75628,24.96027,,,,,,,,,,,3,52149
和合客栈,102.75689,24.96,,,,,,,,,,,3,56120
吉亨宾馆,102.75666,24.95985,,,,,,,,,,,3,57206
云秀书院,102.75624300000001,24.959712,,,,,,,,,,,1,65078
美妆阁造型工作室,102.75683000000001,24.96027,,,,,,,,,,,3,16079
时尚顶尖烫染沙龙,102.75752,24.95994,,,,,,,,,,,3,16577
顶尚美NO．2,102.7568,24.96031,,,,,,,,,,,3,16642
乐众棋牌室,102.75796,24.96042,,,,,,,,,,,3,19572
花形美,102.75756,24.95988,,,,,,,,,,,3,21833
王顺英诊所,102.75789499999999,24.959151000000002,,,,,,,,,,,3,24988
佳群诊所,102.757641,24.95899,,,,,,,,,,,3,25884
和合客栈,102.75689,24.9602,,,,,,,,,,,3,26331
君宜居客房,102.75745,24.96039,,,,,,,,,,,3,26358
龙泉招待所,102.75731,24.96056,,,,,,,,,,,3,26584
瑞泰宾馆,102.75789,24.96037,,,,,,,,,,,3,26586
宏福旅馆,102.75764000000001,24.959039999999998,,,,,,,,,,,3,26711
福桥旅社,102.75784,24.959220000000002,,,,,,,,,,,3,26833
逸家悦宾馆,102.7575,24.95996,,,,,,,,,,,3,27044
华光庙,102.757409,24.959294,,,,,,,,,,,3,27923
凌云阁,102.7575,24.959508,,,,,,,,,,,3,28025
美味缘火锅店,102.75761999999999,24.95961,,,,,,,,,,,3,34943
时尚顶尖烫染沙龙,102.75752,24.95974,,,,,,,,,,,3,46366
剪尚秀美发工作室,102.75703,24.960379999999997,,,,,,,,,,,3,46937
乐众棋牌室,102.75796,24.96022,,,,,,,,,,,3,49361
花形美,102.75756,24.95968,,,,,,,,,,,3,51622
王顺英诊所,102.75789499999999,24.958951000000003,,,,,,,,,,,3,54777
君宜居客房,102.75745,24.96019,,,,,,,,,,,3,56147
龙泉招待所,102.75731,24.96036,,,,,,,,,,,3,56373
瑞泰宾馆,102.75789,24.96017,,,,,,,,,,,3,56375
福桥旅社,102.75784,24.959020000000002,,,,,,,,,,,3,56622
逸家悦宾馆,102.7575,24.95976,,,,,,,,,,,3,56833
航源客房,102.75699,24.96044,,,,,,,,,,,3,57159
华光庙,102.757409,24.959094,,,,,,,,,,,3,57712
凌云阁,102.7575,24.959308,,,,,,,,,,,3,57814
云庭酒店,102.75769,24.96154,,,,,,,,,,,3,26483
航源客房,102.75699,24.960639999999998,,,,,,,,,,,3,27370
福建沙县营养小吃,102.75717,24.96098,,,,,,,,,,,3,35120
盛鑫饭店,102.75726999999999,24.96105,,,,,,,,,,,3,36465
亿饮,102.75768000000001,24.96133,,,,,,,,,,,3,36466
陈氏香鹅掌昆明店,102.75699,24.96176,,,,,,,,,,,3,37637
重庆一品串串香,102.75738,24.96092,,,,,,,,,,,3,37752
云兴源小吃,102.75726999999999,24.96084,,,,,,,,,,,3,38098
随忆烤鱼,102.75735,24.96089,,,,,,,,,,,3,38315
世纪·花园火锅,102.75708,24.96096,,,,,,,,,,,3,39956
味在其中农家菜,102.75721999999999,24.96102,,,,,,,,,,,3,43525
民间瓦罐煨汤,102.75707,24.96121,,,,,,,,,,,3,43970
双泉沐浴,102.75754,24.961,,,,,,,,,,,3,47030
云水遥温泉会所,102.75761999999999,24.96184,,,,,,,,,,,3,47305
鸿华美容美体养生馆NO．19024,102.75763,24.96154,,,,,,,,,,,3,48683
独品造型,102.75715,24.9613,,,,,,,,,,,3,48988
云庭酒店,102.75769,24.96134,,,,,,,,,,,3,56272
