name,longitude,latitude,phone,address,district,city,area,zipcodetype,datatype,date,creator,source,index
绾秀苑,102.76341,25.0769,,,,,,,,,,,3,45473
树木园,102.76286800000001,25.076082999999997,,,,,,,,,,,3,27958
宝莲佛光,102.764441,25.076642999999997,,,,,,,,,,,3,27853
华夏方神,102.764376,25.076812,,,,,,,,,,,3,27854
惊蛰侏罗纪,102.764376,25.076812,,,,,,,,,,,3,27855
红妆丽人,102.764009,25.076539999999998,,,,,,,,,,,3,27856
风起云扬,102.76389,25.076682,,,,,,,,,,,3,27857
苍古雷神,102.76384499999999,25.076677,,,,,,,,,,,3,27858
彩凤飞翼,102.764157,25.076369,,,,,,,,,,,3,27859
电闪弧光,102.76390699999999,25.076715,,,,,,,,,,,3,27860
旭日东升,102.76372099999999,25.076104,,,,,,,,,,,3,27902
庄周梦蝶,102.764376,25.076812,,,,,,,,,,,3,27905
鲲鹏展翅,102.764227,25.076995,,,,,,,,,,,3,27913
万卷地书,102.764166,25.076683,,,,,,,,,,,3,27931
江南春雨,102.76416400000001,25.076981,,,,,,,,,,,3,27943
南诏山水,102.764054,25.076516,,,,,,,,,,,3,27989
黄河神图,102.764213,25.076403,,,,,,,,,,,3,28042
和氏之玉,102.764336,25.07656,,,,,,,,,,,3,28073
滇岳山神,102.763703,25.07633,,,,,,,,,,,3,28104
香炉紫烟,102.76411999999999,25.076712,,,,,,,,,,,3,28109
石林春晓,102.763863,25.076359,,,,,,,,,,,3,28143
百花女神,102.764376,25.076812,,,,,,,,,,,3,28146
春光烂漫,102.76404699999999,25.076271,,,,,,,,,,,3,28159
古鳄戏蟾,102.764376,25.076812,,,,,,,,,,,3,28162
云光岚彩,102.764087,25.07679,,,,,,,,,,,3,28240
东方雄狮,102.76378100000001,25.076410999999997,,,,,,,,,,,3,28284
巴勒斯坦园,102.764739,25.076039,,,,,,,,,,,3,28303
艺石景区,102.76372099999999,25.076104,,,,,,,,,,,3,28342
宝莲佛光,102.764441,25.076442999999998,,,,,,,,,,,3,57642
华夏方神,102.764376,25.076612,,,,,,,,,,,3,57643
惊蛰侏罗纪,102.764376,25.076612,,,,,,,,,,,3,57644
红妆丽人,102.764009,25.07634,,,,,,,,,,,3,57645
风起云扬,102.76389,25.076482000000002,,,,,,,,,,,3,57646
苍古雷神,102.76384499999999,25.076477,,,,,,,,,,,3,57647
彩凤飞翼,102.764157,25.076169,,,,,,,,,,,3,57648
电闪弧光,102.76390699999999,25.076515,,,,,,,,,,,3,57649
庄周梦蝶,102.764376,25.076612,,,,,,,,,,,3,57694
鲲鹏展翅,102.764227,25.076795,,,,,,,,,,,3,57702
万卷地书,102.764166,25.076483,,,,,,,,,,,3,57720
江南春雨,102.76416400000001,25.076781,,,,,,,,,,,3,57732
南诏山水,102.764054,25.076316000000002,,,,,,,,,,,3,57778
黄河神图,102.764213,25.076203,,,,,,,,,,,3,57831
和氏之玉,102.764336,25.07636,,,,,,,,,,,3,57862
滇岳山神,102.763703,25.07613,,,,,,,,,,,3,57893
香炉紫烟,102.76411999999999,25.076512,,,,,,,,,,,3,57898
石林春晓,102.763863,25.076159,,,,,,,,,,,3,57932
百花女神,102.764376,25.076612,,,,,,,,,,,3,57935
春光烂漫,102.76404699999999,25.076071,,,,,,,,,,,3,57948
古鳄戏蟾,102.764376,25.076612,,,,,,,,,,,3,57951
云光岚彩,102.764087,25.07659,,,,,,,,,,,3,58029
东方雄狮,102.76378100000001,25.076210999999997,,,,,,,,,,,3,58073
巴勒斯坦园,102.764739,25.075839000000002,,,,,,,,,,,3,58092
丹凤朝阳,102.763487,25.076339,,,,,,,,,,,3,28017
鸿宇餐厅,102.76212,25.07752,,,,,,,,,,,3,15211
云南中烟工业公司,102.76169300000001,25.078616,,,,,,,,,,,1,877
世博生态城－运动中心,102.7623,25.07827,,,,,,,,,,,3,21045
山东曹州牡丹园,102.76162099999999,25.07799,,,,,,,,,,,3,27941
世博生态城－运动中心,102.7623,25.07807,,,,,,,,,,,3,50834
山东曹州牡丹园,102.76162099999999,25.07779,,,,,,,,,,,3,57730
云南中烟工业公司,102.76169300000001,25.078816,,,,,,,,,,,1,65098
壮壮柯达富士专卖店,102.760918,25.076747,,,,,,,,,,,1,641
云南旅游风味小吃,102.760772,25.076556,,,,,,,,,,,1,1079
天津天津园,102.760614,25.077154999999998,,,,,,,,,,,3,27804
河南豫苑,102.76010500000001,25.076867,,,,,,,,,,,3,27809
北京园万春园,102.760566,25.076445999999997,,,,,,,,,,,3,27957
广东粤晖园,102.761886,25.07666,,,,,,,,,,,3,27979
上海明珠苑,102.761486,25.076767999999998,,,,,,,,,,,3,27992
安徽徽园,102.76089499999999,25.076576999999997,,,,,,,,,,,3,28039
福建生态园,102.76155,25.076513,,,,,,,,,,,3,28040
江西瓷园,102.760875,25.075899,,,,,,,,,,,3,28041
山东齐鲁园,102.761341,25.076654,,,,,,,,,,,3,28108
香港中国之窗,102.761072,25.077279,,,,,,,,,,,3,28238
河北燕赵紫翠,102.760391,25.077054,,,,,,,,,,,3,28289
江苏苏园东吴小筑,102.76105600000001,25.075979999999998,,,,,,,,,,,3,28322
湖北楚园,102.760315,25.07643,,,,,,,,,,,3,28363
天津天津园,102.760614,25.076954999999998,,,,,,,,,,,3,57593
河南豫苑,102.76010500000001,25.076667,,,,,,,,,,,3,57598
北京园万春园,102.760566,25.076245999999998,,,,,,,,,,,3,57746
上海明珠苑,102.761486,25.076567999999998,,,,,,,,,,,3,57781
黑龙江天鹅园,102.76097800000001,25.07757,,,,,,,,,,,3,57826
安徽徽园,102.76089499999999,25.076376999999997,,,,,,,,,,,3,57828
福建生态园,102.76155,25.076313,,,,,,,,,,,3,57829
山西槐香园,102.760425,25.077478,,,,,,,,,,,3,57859
山东齐鲁园,102.761341,25.076454000000002,,,,,,,,,,,3,57897
内蒙古草原之家,102.760676,25.077547,,,,,,,,,,,3,57931
香港中国之窗,102.761072,25.077079,,,,,,,,,,,3,58027
河北燕赵紫翠,102.760391,25.076854,,,,,,,,,,,3,58078
湖北楚园,102.760315,25.07623,,,,,,,,,,,3,58152
壮壮柯达富士专卖店,102.760918,25.076947,,,,,,,,,,,1,64862
云南旅游风味小吃,102.760772,25.076756,,,,,,,,,,,1,65300
辽宁辽园,102.761432,25.077731,,,,,,,,,,,3,27994
澳门花园,102.761832,25.077347,,,,,,,,,,,3,27995
锦锈中华,102.762248,25.077129,,,,,,,,,,,3,28021
海南风情园,102.762126,25.076646,,,,,,,,,,,3,28035
吉林白山天池园,102.76158000000001,25.077648,,,,,,,,,,,3,28038
鸿宇餐厅,102.76212,25.07732,,,,,,,,,,,3,45000
辽宁辽园,102.761432,25.077531,,,,,,,,,,,3,57783
澳门花园,102.761832,25.077147,,,,,,,,,,,3,57784
锦锈中华,102.762248,25.076929,,,,,,,,,,,3,57810
吉林白山天池园,102.76158000000001,25.077448,,,,,,,,,,,3,57827
旭日东升,102.76372099999999,25.075904,,,,,,,,,,,3,57691
树木园,102.76286800000001,25.075882999999997,,,,,,,,,,,3,57747
丹凤朝阳,102.763487,25.076139,,,,,,,,,,,3,57806
海南风情园,102.762126,25.076446,,,,,,,,,,,3,57824
艺石景区,102.76372099999999,25.075904,,,,,,,,,,,3,58131
