name,longitude,latitude,phone,address,district,city,area,zipcodetype,datatype,date,creator,source,index
剪刀空间,102.70285,25.038439999999998,,,,,,,,,,,3,17885
云华楼（风尚商务酒店）,102.70311,25.0383,,,,,,,,,,,3,26359
新加坡泰国村鱼翅,102.70343000000001,25.03829,,,,,,,,,,,3,36648
澳洲黛安娜红酒坊,102.70343000000001,25.03829,,,,,,,,,,,3,36649
剪刀空间,102.70285,25.03824,,,,,,,,,,,3,47674
云华楼（风尚商务酒店）,102.70311,25.0381,,,,,,,,,,,3,56148
拉姆火塘,102.702864,25.038199,,,,,,,,,,,1,66982
