name,longitude,latitude,phone,address,district,city,area,zipcodetype,datatype,date,creator,source,index
云南省测绘工程院,102.67912,25.058641,,,,,,,,,,,3,37616
中医骨伤科诊所,102.678218,25.060108,,,,,,,,,,,3,30228
昆明市虹山派出所,102.678474,25.059264000000002,,,,,,,,,,,3,36844
艺翔艺术培训中心,102.678344,25.059729,,,,,,,,,,,3,38163
虹山幼儿园,102.679563,25.058585,,,,,,,,,,,3,37764
