name,longitude,latitude,phone,address,district,city,area,zipcodetype,datatype,date,creator,source,index
明兴骨科医馆,102.661961,25.039744,,,,,,,,,,,3,32950
赵氏兄弟专业修脚坊NO．9,102.66147,25.038829999999997,,,,,,,,,,,3,28756
和缘会馆,102.66141,25.03875,,,,,,,,,,,3,28950
贝尔口腔,102.66126700000001,25.038815,,,,,,,,,,,3,31607
中国农业银行龙庭支行,102.66156,25.039279999999998,,,,,,,,,,,3,41507
