name,longitude,latitude,phone,address,district,city,area,zipcodetype,datatype,date,creator,source,index
大草原烤羊腿,102.67791,25.03227,,,,,,,,,,,3,21667
星雅造型,102.67788,25.03185,,,,,,,,,,,3,26075
阿聪发艺,102.67756,25.03229,,,,,,,,,,,3,27844
鑫鑫健康会所,102.67792,25.0325,,,,,,,,,,,3,29383
瑞芳美容美体养生馆,102.67811,25.032529999999998,,,,,,,,,,,3,29411
梓苑足浴保健,102.6779,25.03184,,,,,,,,,,,3,29768
中国光大银行ATM,102.67763000000001,25.03217,,,,,,,,,,,3,41433
