name,longitude,latitude,phone,address,district,city,area,zipcodetype,datatype,date,creator,source,index
龙头街回族兄弟园,102.72498,25.1138,,,,,,,,,,,3,11325
刘氏甩两碗,102.725,25.11401,,,,,,,,,,,3,11543
龙头街回族兄弟园,102.72498,25.1136,,,,,,,,,,,3,18772
刘氏甩两碗,102.725,25.11381,,,,,,,,,,,3,18990
佛缘堂,102.72488,25.11315,,,,,,,,,,,3,25337
万成招待所,102.72502,25.113889999999998,,,,,,,,,,,3,34862
华欣幼儿园,102.725029,25.113961,,,,,,,,,,,3,39788
剑桥英语培训中心,102.725029,25.113961,,,,,,,,,,,3,40004
