name,longitude,latitude,phone,address,district,city,area,zipcodetype,datatype,date,creator,source,index
唐记农家园,102.71656,24.98185,,,,,,,,,,,3,20141
茗人美发造型,102.71661,24.9816,,,,,,,,,,,3,26068
天天向上,102.71710999999999,24.981679999999997,,,,,,,,,,,3,26291
华都,102.7167875,24.9807032,,,,,,,,,,,2,157
发源地,102.71689,24.98144,,,,,,,,,,,3,27076
华都,102.7167875,24.9809032,,,,,,,,,,,2,42036
家齐形象烫染吧,102.7174,24.98196,,,,,,,,,,,3,29343
官渡丽云门诊,102.71611999999999,24.981907999999997,,,,,,,,,,,3,29943
