name,longitude,latitude,phone,address,district,city,area,zipcodetype,datatype,date,creator,source,index
夜宴,102.75356,24.96002,,,,,,,,,,,3,26972
邦旭大酒店,102.75371,24.95991,,,,,,,,,,,3,34008
昌源宾馆,102.75407,24.959529999999997,,,,,,,,,,,3,34318
鑫益小宾馆,102.75424,24.95968,,,,,,,,,,,3,35134
交通银行ATM,102.75361,24.96,,,,,,,,,,,3,41061
