name,longitude,latitude,phone,address,district,city,area,zipcodetype,datatype,date,creator,source,index
沙坪坝老巷子火锅鱼庄,102.76127,24.95008,,,,,,,,,,,3,20609
岳灵生发,102.76196999999999,24.95032,,,,,,,,,,,3,23584
天然东方卉,102.76064000000001,24.950670000000002,,,,,,,,,,,3,24025
东方名剪,102.76066999999999,24.95063,,,,,,,,,,,3,24920
小董盲人按摩室,102.7606,24.95073,,,,,,,,,,,3,26647
心悦沐足,102.76221,24.950120000000002,,,,,,,,,,,3,28146
绍兴宠物诊所,102.76207600000001,24.950442000000002,,,,,,,,,,,3,30966
