name,longitude,latitude,phone,address,district,city,area,zipcodetype,datatype,date,creator,source,index
昆铁房建宾馆,102.71961,25.015929999999997,,,,,,,,,,,3,34477
云之味饭店,102.71838000000001,25.0159,,,,,,,,,,,3,7743
云之味饭店,102.71838000000001,25.0157,,,,,,,,,,,3,15190
绍湖诊所,102.718797,25.015766,,,,,,,,,,,3,33440
昆明客运段,102.717612,25.015546,,,,,,,,,,,3,36584
昆明市铁路公安局,102.719607,25.015933,,,,,,,,,,,3,36534
