name,longitude,latitude,phone,address,district,city,area,zipcodetype,datatype,date,creator,source,index
珍珍医药房,102.466555,25.549443,,,,,,,,,,,3,32176
天雄加油站,102.467197,25.548054999999998,,,,,,,,,,,3,4695
天雄加油站,102.467197,25.547855,,,,,,,,,,,3,12142
禄劝皮肤病专科,102.46667099999999,25.548763,,,,,,,,,,,3,31368
健业药房,102.467735,25.547692,,,,,,,,,,,3,32302
禄劝公路路政管理大队,102.466021,25.549633,,,,,,,,,,,3,36506
康乐大药房,102.467577,25.5498,,,,,,,,,,,3,30208
禄劝县食品药品监督管理局,102.46690500000001,25.54924,,,,,,,,,,,3,36693
