name,longitude,latitude,phone,address,district,city,area,zipcodetype,datatype,date,creator,source,index
幡悟,102.71488000000001,25.072229999999998,,,,,,,,,,,3,29093
昆明普瑞眼科医院,102.715903,25.071769,,,,,,,,,,,1,3090
德玛CLUB,102.71545,25.072039999999998,,,,,,,,,,,3,23603
轻松美容会所,102.71553,25.072010000000002,,,,,,,,,,,3,24651
昆明物理研究所,102.714825,25.07132,,,,,,,,,,,1,2873
音乐咖酒吧,102.71507,25.07218,,,,,,,,,,,3,26347
宜百便利店,102.71499,25.0722,,,,,,,,,,,3,27867
拐角,102.71486999999999,25.0723,,,,,,,,,,,3,29191
