name,longitude,latitude,phone,address,district,city,area,zipcodetype,datatype,date,creator,source,index
康蕊药业吉瑞堂NO．10,102.469763,25.558385,,,,,,,,,,,3,32424
禄劝中医院,102.469059,25.557060999999997,,,,,,,,,,,3,30586
老百姓大药房,102.468707,25.555961,,,,,,,,,,,3,30106
现代口腔,102.468856,25.556394,,,,,,,,,,,3,31372
禄劝晓云药店,102.468396,25.557084,,,,,,,,,,,3,31756
健之佳健康药房NO．232,102.469448,25.55754,,,,,,,,,,,3,33147
阳光幼儿园,102.46956800000001,25.557586999999998,,,,,,,,,,,3,38962
一心堂禄劝海田街连锁店,102.46921,25.558004,,,,,,,,,,,3,33201
