name,longitude,latitude,phone,address,district,city,area,zipcodetype,datatype,date,creator,source,index
东骏大药房草铺连锁店,102.380176,24.931113,,,,,,,,,,,3,30681
怀德仁药房,102.38085,24.930429999999998,,,,,,,,,,,3,30161
一心堂安宁草铺连锁店,102.381624,24.930463,,,,,,,,,,,3,30898
安宁源济堂药店,102.380143,24.931047,,,,,,,,,,,3,30902
安宁市地税局五分局,102.381499,24.930711,,,,,,,,,,,3,36653
