name,longitude,latitude,phone,address,district,city,area,zipcodetype,datatype,date,creator,source,index
金花饭店,102.79424,24.82959,,,,,,,,,,,3,8204
马街老字号罗非鱼庄,102.79437,24.82946,,,,,,,,,,,3,11016
金花饭店,102.79424,24.82939,,,,,,,,,,,3,15651
马街老字号罗非鱼庄,102.79437,24.82926,,,,,,,,,,,3,18463
留一手特色烤鱼店,102.79453000000001,24.82904,,,,,,,,,,,3,22307
鑫渔园农家菜馆,102.79429,24.82929,,,,,,,,,,,3,23106
大渔街道计划生育服务所,102.794146,24.829476,,,,,,,,,,,3,36462
