name,longitude,latitude,phone,address,district,city,area,zipcodetype,datatype,date,creator,source,index
韩方科颜,102.70961,25.0432,,,,,,,,,,,3,24770
一碗香牛肉拉面,102.70886,25.04407,,,,,,,,,,,3,21620
阿水造型发型连锁沙龙,102.70962,25.04371,,,,,,,,,,,3,23527
群艺小剧场,102.70918,25.04371,,,,,,,,,,,3,28390
东骏大药房正义路连锁店,102.710185,25.043160999999998,,,,,,,,,,,3,33234
培智学校西门,102.70988,25.043654999999998,,,,,,,,,,,3,38070
