name,longitude,latitude,phone,address,district,city,area,zipcodetype,datatype,date,creator,source,index
听味楼圆子鸡圆通店,102.71499,25.05236,,,,,,,,,,,3,9035
听味楼圆子鸡圆通店,102.71499,25.05216,,,,,,,,,,,3,16482
滇禧园滚锅牛肉园通分店,102.71503,25.0524,,,,,,,,,,,3,20278
滨江大厦,102.71519,25.052229999999998,,,,,,,,,,,3,36041
富滇银行昆明长春支行,102.71503,25.05272,,,,,,,,,,,3,40529
中国人民健康保险云南分公司,102.71519,25.052229999999998,,,,,,,,,,,3,41285
