name,longitude,latitude,phone,address,district,city,area,zipcodetype,datatype,date,creator,source,index
云南省水文水资源局西门,102.65685699999999,25.056948000000002,,,,,,,,,,,3,36684
有茗堂,102.65736,25.05813,,,,,,,,,,,3,27042
沙沟尾社区卫生站,102.657159,25.057614,,,,,,,,,,,3,30750
西秀幼儿园,102.657558,25.058429999999998,,,,,,,,,,,3,39890
交通银行ATM,102.65741,25.05825,,,,,,,,,,,3,40497
中国太平洋财产保险股份有限公司昆明市春城支公司,102.65741,25.05828,,,,,,,,,,,3,41673
