name,longitude,latitude,phone,address,district,city,area,zipcodetype,datatype,date,creator,source,index
陈连焕诊所,102.692962,25.059151,,,,,,,,,,,3,31151
志城家园,102.693523,25.059898,,,,,,,,,,,1,790
黑克台球主题BAR,102.69295,25.05927,,,,,,,,,,,3,23611
昆明理工大学西门,102.692612,25.059858,,,,,,,,,,,3,37876
中国银行ATM,102.69279,25.05955,,,,,,,,,,,3,40494
中国工商银行建设路支行,102.69258,25.06006,,,,,,,,,,,3,40761
志城家园,102.693523,25.060098,,,,,,,,,,,1,42669
