name,longitude,latitude,phone,address,district,city,area,zipcodetype,datatype,date,creator,source,index
新潮歌舞厅,102.72229,25.06418,,,,,,,,,,,3,26934
加油站,102.723502,25.064396,,,,,,,,,,,3,4710
重庆江湖农家菜,102.72264,25.06429,,,,,,,,,,,3,11679
加油站,102.723502,25.064196,,,,,,,,,,,3,12157
重庆江湖农家菜,102.72264,25.06409,,,,,,,,,,,3,19126
教苑宾馆,102.72286,25.06401,,,,,,,,,,,3,33960
盘龙宏益诊所,102.721843,25.064054000000002,,,,,,,,,,,3,30407
