name,longitude,latitude,phone,address,district,city,area,zipcodetype,datatype,date,creator,source,index
健之佳健康药房,102.859064,24.862603,,,,,,,,,,,3,31956
和园食堂清真餐厅,102.86025,24.86218,,,,,,,,,,,3,8074
和园食堂清真餐厅,102.86025,24.86198,,,,,,,,,,,3,15521
桌游吧,102.85976,24.86273,,,,,,,,,,,3,22823
云南师大东区二楼美食广场,102.86025,24.86198,,,,,,,,,,,3,22922
经典形象设计工作室,102.85983,24.86276,,,,,,,,,,,3,26607
标榜造型烫染会所,102.85946,24.862579999999998,,,,,,,,,,,3,28892
