name,longitude,latitude,phone,address,district,city,area,zipcodetype,datatype,date,creator,source,index
结缘宾馆,102.72363,24.74435,,,,,,,,,,,3,35035
喜尔康大药房新街店,102.724195,24.743576,,,,,,,,,,,3,32764
昆明市晋宁县工商局新街工商所,102.72379000000001,24.74389,,,,,,,,,,,3,36371
中国农业银行新街分理处,102.72435,24.74285,,,,,,,,,,,3,41147
农村信用社新街信用社,102.72431,24.7431,,,,,,,,,,,3,41313
