name,longitude,latitude,phone,address,district,city,area,zipcodetype,datatype,date,creator,source,index
冠益中学,102.74499300000001,25.008924,,,,,,,,,,,3,39474
迷你美容美发养生会所,102.74379,25.00885,,,,,,,,,,,3,26123
伊人活色生香美丽坊,102.74433,25.00915,,,,,,,,,,,3,29292
宏瑞商务宾馆,102.74449,25.00927,,,,,,,,,,,3,34718
天赐明珠商业大厦,102.7433,25.00856,,,,,,,,,,,3,36069
音乐之声艺术园地,102.744374,25.009179999999997,,,,,,,,,,,3,40195
