name,longitude,latitude,phone,address,district,city,area,zipcodetype,datatype,date,creator,source,index
四川饭店,102.73286,24.97717,,,,,,,,,,,3,6984
大理白族风味小吃,102.73315,24.97731,,,,,,,,,,,3,9999
顺鑫牛肉手拉面馆,102.73318,24.977520000000002,,,,,,,,,,,3,11619
四川饭店,102.73286,24.97697,,,,,,,,,,,3,14431
大理白族风味小吃,102.73315,24.97711,,,,,,,,,,,3,17446
顺鑫牛肉手拉面馆,102.73318,24.977320000000002,,,,,,,,,,,3,19066
宣威农家菜,102.73291,24.9766,,,,,,,,,,,3,21301
向化一家人野菜馆,102.7331,24.97778,,,,,,,,,,,3,21914
