name,longitude,latitude,phone,address,district,city,area,zipcodetype,datatype,date,creator,source,index
胖嫂东北孙家饺子新闻路连锁店,102.68449,25.03335,,,,,,,,,,,3,22120
畅心酒吧,102.68467,25.03359,,,,,,,,,,,3,23846
顶尖秀发空间,102.68485,25.03378,,,,,,,,,,,3,24293
玉娥推拿室,102.68478,25.033720000000002,,,,,,,,,,,3,28715
东陆体育活动中心羽毛球馆,102.68517,25.03284,,,,,,,,,,,3,28926
千诺酒店,102.68466,25.03337,,,,,,,,,,,3,34786
佛海寺,102.685367,25.033295000000003,,,,,,,,,,,3,35498
大观文化广场,102.68428,25.03418,,,,,,,,,,,3,35867
