name,longitude,latitude,phone,address,district,city,area,zipcodetype,datatype,date,creator,source,index
农夫菜坊,102.69649,25.02431,,,,,,,,,,,3,10159
滇缅傣香悦德宏风味馆气象店,102.69631,25.024189999999997,,,,,,,,,,,3,10372
龙味居黑山羊,102.69700999999999,25.0247,,,,,,,,,,,3,10701
农夫菜坊,102.69649,25.02411,,,,,,,,,,,3,17606
龙味居黑山羊,102.69700999999999,25.0245,,,,,,,,,,,3,18148
跨度艺剪形象设计工作室,102.69718,25.02459,,,,,,,,,,,3,26785
五华区人民法院执行工作局,102.69663800000001,25.024236,,,,,,,,,,,3,37179
