name,longitude,latitude,phone,address,district,city,area,zipcodetype,datatype,date,creator,source,index
官渡区普照中心学校,102.80347900000001,24.990537,,,,,,,,,,,3,37609
湖北人家,102.80471,24.99083,,,,,,,,,,,3,21625
鹅味道聚友缘,102.80555,24.991229999999998,,,,,,,,,,,3,21642
香庆园,102.80379,24.99055,,,,,,,,,,,3,22636
金池御浴,102.80526,24.991220000000002,,,,,,,,,,,3,29714
