name,longitude,latitude,phone,address,district,city,area,zipcodetype,datatype,date,creator,source,index
昆明市公安局滇池海口派出所,102.601344,24.781695000000003,,,,,,,,,,,3,36790
三江酒楼,102.6023,24.78207,,,,,,,,,,,3,22730
凯撒KTV,102.60285999999999,24.78138,,,,,,,,,,,3,23760
皇朝圣地KTV量贩,102.60218,24.78144,,,,,,,,,,,3,26048
私奔,102.60252,24.78129,,,,,,,,,,,3,26049
昆明市滇池水利管理处,102.601344,24.781695000000003,,,,,,,,,,,3,37178
