name,longitude,latitude,phone,address,district,city,area,zipcodetype,datatype,date,creator,source,index
宏济饭店,102.82644,24.99416,,,,,,,,,,,3,22628
紫馨霓美容美发会所,102.82596,24.99448,,,,,,,,,,,3,25149
刚好和网吧,102.82689,24.9946,,,,,,,,,,,3,25150
昆明铁路公安局昆明公安处警犬训练大队,102.826759,24.994569,,,,,,,,,,,3,37572
昆明铁路局党校,102.825514,24.993884,,,,,,,,,,,3,39150
