name,longitude,latitude,phone,address,district,city,area,zipcodetype,datatype,date,creator,source,index
花溪牛肉米线,102.6951,25.05442,,,,,,,,,,,3,11642
福荣餐厅,102.69501,25.05446,,,,,,,,,,,3,17000
花溪牛肉米线,102.6951,25.05422,,,,,,,,,,,3,19089
哈鲜族,102.69505,25.05435,,,,,,,,,,,3,20768
唐会小黄牛带皮牛肉米线建设店,102.69501,25.05443,,,,,,,,,,,3,21366
Oｐａ台球会所,102.69504,25.0543,,,,,,,,,,,3,23995
