name,longitude,latitude,phone,address,district,city,area,zipcodetype,datatype,date,creator,source,index
筑友双河湾,102.705271,24.984664000000002,,,,,,,,,,,2,512
普毅网吧,102.70573,24.98469,,,,,,,,,,,3,25423
金柏汉宫娱乐会所大商园店,102.7058,24.98505,,,,,,,,,,,3,25998
一心堂昆明前兴路连锁店,102.705822,24.985151000000002,,,,,,,,,,,3,33602
金南亚商务酒店,102.7058,24.98505,,,,,,,,,,,3,34626
大商园建材城办公大楼,102.70573,24.9845,,,,,,,,,,,3,36132
筑友双河湾,102.705271,24.984864,,,,,,,,,,,2,42391
