name,longitude,latitude,phone,address,district,city,area,zipcodetype,datatype,date,creator,source,index
姐妹发艺形象工作室,102.68122,25.03448,,,,,,,,,,,3,26388
梅花梦美容院,102.68058,25.03546,,,,,,,,,,,3,25525
谊丽齐美容取痣服务部,102.68082,25.035079999999997,,,,,,,,,,,3,26597
欣鑫按摩服务部,102.68061,25.035420000000002,,,,,,,,,,,3,28697
舒风堂,102.681263,25.034397,,,,,,,,,,,3,30364
