name,longitude,latitude,phone,address,district,city,area,zipcodetype,datatype,date,creator,source,index
世界园艺博览园,102.761526,25.074553,,,,,,,,,,,3,35385
中国馆,102.760634,25.07432,,,,,,,,,,,3,35474
世纪广场,102.76158000000001,25.07365,,,,,,,,,,,3,25721
温室,102.76218100000001,25.073784,,,,,,,,,,,3,35596
名人植物园,102.7614,25.074046,,,,,,,,,,,3,35816
