name,longitude,latitude,phone,address,district,city,area,zipcodetype,datatype,date,creator,source,index
黑龙江饺子店,102.85098,24.89133,,,,,,,,,,,3,20040
大理林清小吃,102.85143000000001,24.89183,,,,,,,,,,,3,20041
雄锋酸汤猪脚火锅店,102.85151,24.8919,,,,,,,,,,,3,22092
天成发艺,102.85115,24.891560000000002,,,,,,,,,,,3,24461
昆明市中华小学,102.850332,24.891065,,,,,,,,,,,3,39702
