name,longitude,latitude,phone,address,district,city,area,zipcodetype,datatype,date,creator,source,index
园博花鸟市场,102.756632,25.069257999999998,,,,,,,,,,,1,1250
人与自然(西北门),102.756876,25.068929999999998,,,,,,,,,,,1,2265
郦岛嘉园(东一门),102.756485,25.069276000000002,,,,,,,,,,,1,2666
昆明市人与自然社区步行街,102.757007,25.068638,,,,,,,,,,,1,2951
翠竹丽湾美食会所,102.75658,25.06973,,,,,,,,,,,3,22278
