name,longitude,latitude,phone,address,district,city,area,zipcodetype,datatype,date,creator,source,index
海鸥宾馆－餐厅,102.70225,25.04433,,,,,,,,,,,3,12839
荟萃楼,102.70267,25.04504,,,,,,,,,,,3,18098
石屏会馆大食府,102.70260999999999,25.044629999999998,,,,,,,,,,,3,20038
碧悠汀美容SPA会所,102.70208000000001,25.04382,,,,,,,,,,,3,28763
戈登大厦,102.70196,25.04384,,,,,,,,,,,3,35879
