name,longitude,latitude,phone,address,district,city,area,zipcodetype,datatype,date,creator,source,index
安康药房,102.748909,24.705194,,,,,,,,,,,3,29876
晋宁晋城新药商店,102.74825799999999,24.705123,,,,,,,,,,,3,29877
希尔康大药房晋城店,102.74976099999999,24.705334,,,,,,,,,,,3,30592
一心堂晋城农贸街连锁店,102.749686,24.70532,,,,,,,,,,,3,31149
晋城兴茂药堂,102.74941899999999,24.705548,,,,,,,,,,,3,31824
东骏大药房庄蹻路连锁店,102.748535,24.705117,,,,,,,,,,,3,32661
博爱综合门诊部,102.749767,24.705261,,,,,,,,,,,3,32953
