name,longitude,latitude,phone,address,district,city,area,zipcodetype,datatype,date,creator,source,index
听牧牛庄,102.74394000000001,25.109370000000002,,,,,,,,,,,3,8596
听牧牛庄,102.74394000000001,25.109170000000002,,,,,,,,,,,3,16043
绿城·春江明月,102.745026,25.108875,,,,,,,,,,,2,274
云南恒业游泳馆,102.74438,25.10843,,,,,,,,,,,3,23530
大印足,102.74428,25.10898,,,,,,,,,,,3,25063
明凡公馆国际娱乐会所,102.7441,25.10916,,,,,,,,,,,3,28414
绿城·春江明月,102.745026,25.109075,,,,,,,,,,,2,42153
