name,longitude,latitude,phone,address,district,city,area,zipcodetype,datatype,date,creator,source,index
原跑马山回族饭店NO．1,102.79346,24.89262,,,,,,,,,,,3,22526
石屏阿牛米线烧烤城,102.79436,24.892039999999998,,,,,,,,,,,3,5152
徐源隆兴万福园毛驴馆NO．4,102.79378,24.892329999999998,,,,,,,,,,,3,11042
石屏阿牛米线烧烤城,102.79436,24.89184,,,,,,,,,,,3,12599
徐源隆兴万福园毛驴馆NO．4,102.79378,24.892129999999998,,,,,,,,,,,3,18489
罗记贵阳花溪清汤鹅,102.7938,24.89196,,,,,,,,,,,3,21270
昆明马金铺陈氏骨科医院,102.793754,24.89208,,,,,,,,,,,3,30435
