name,longitude,latitude,phone,address,district,city,area,zipcodetype,datatype,date,creator,source,index
御花堂中医美容院（永昌店）,102.7033,25.0196,,,,,,,,,,,3,26370
云南省第一人民医院环西门诊部,102.70402299999999,25.019706,,,,,,,,,,,3,30841
云南省乡镇企业生产力促进中心,102.70339799999999,25.019569,,,,,,,,,,,3,37274
云南省中小企业服务中心,102.70339799999999,25.019569,,,,,,,,,,,3,37340
外贸幼儿园,102.70347,25.019835,,,,,,,,,,,3,38101
云南农村信用社ATM,102.7041,25.01971,,,,,,,,,,,3,41819
