name,longitude,latitude,phone,address,district,city,area,zipcodetype,datatype,date,creator,source,index
糯米粑粑,102.65956,24.96361,,,,,,,,,,,3,19910
太阳广场,102.65954,24.96334,,,,,,,,,,,3,27138
射弩场,102.65968000000001,24.96361,,,,,,,,,,,3,28818
蒙古奶茶,102.65850999999999,24.964,,,,,,,,,,,3,10499
蒙古奶茶,102.65850999999999,24.9638,,,,,,,,,,,3,17946
瑶族寨,102.659249,24.964273000000002,,,,,,,,,,,3,35315
跑马场,102.65851500000001,24.964365,,,,,,,,,,,3,35546
