name,longitude,latitude,phone,address,district,city,area,zipcodetype,datatype,date,creator,source,index
红辣椒川菜馆,102.7233,25.01813,,,,,,,,,,,3,20396
颐华国际商务酒店,102.7238,25.01924,,,,,,,,,,,2,3574
昆明通怡商务酒店（火车站店）,102.7239436,25.01917113,,,,,,,,,,,2,3624
云南印象城,102.7229123,25.0202219,,,,,,,,,,,2,3520
昆明金茂酒店,102.7234876,25.0204034,,,,,,,,,,,2,3598
昆明爱诺风情酒店,102.7233589,25.01996348,,,,,,,,,,,2,3631
昆明市口腔医院,102.72353,25.01985,,,,,,,,,,,2,3635
通海县政府驻昆办事处,102.723166,25.021083,,,,,,,,,,,3,7804
香来客湘菜馆,102.72362,25.0203,,,,,,,,,,,3,16953
广东雷州老三元羊肉火锅城,102.72317,25.02099,,,,,,,,,,,3,19191
蒸蒸日上湖南湘菜馆,102.72364,25.02076,,,,,,,,,,,3,20074
小四川特色小吃,102.723,25.02046,,,,,,,,,,,3,20290
志宏川味园饭店,102.72301,25.02042,,,,,,,,,,,3,20753
小四川饭店,102.723,25.02055,,,,,,,,,,,3,20952
成都担担面过桥米线春林合作示范店,102.7233,25.0202,,,,,,,,,,,3,21025
小掌柜湘菜馆,102.72352,25.02029,,,,,,,,,,,3,21364
金茂商业美食街,102.72326,25.02036,,,,,,,,,,,3,21852
兄妹美食佳宴,102.72293,25.02093,,,,,,,,,,,3,22551
刘氏刀削面,102.72351,25.02074,,,,,,,,,,,3,24255
总装昆明接待中心－餐厅,102.72258,25.01987,,,,,,,,,,,3,24503
哇哇叫生态田鸡火锅,102.72339,25.02049,,,,,,,,,,,3,24819
东北水饺,102.72353,25.02091,,,,,,,,,,,3,28416
云南滇香美食连锁红河干锅旱鸭金茂店,102.72371,25.02031,,,,,,,,,,,3,28501
金茂脆鱼火锅,102.72343,25.02028,,,,,,,,,,,3,28502
 ,102.7221619,25.02068733,,,,,,,,,,,3,33270
 ,102.72338409999999,25.02054918,,,,,,,,,,,3,48407
 ,102.7228397,25.02023972,,,,,,,,,,,3,49043
健之佳健康药房NO．206,102.723371,25.019541,,,,,,,,,,,3,62073
昆明市口腔医院,102.723321,25.020014,,,,,,,,,,,3,64098
一心堂口腔医院药房,102.723344,25.019832,,,,,,,,,,,3,64886
友宾快捷酒店,102.72306,25.01988,,,,,,,,,,,3,65109
总装昆明接待中心二号楼,102.72258000000001,25.01987,,,,,,,,,,,3,66745
爱诺风情酒店,102.72334000000001,25.019779999999997,,,,,,,,,,,3,66992
总装昆明接待中心,102.72258000000001,25.01987,,,,,,,,,,,3,67339
永平路公交站,102.72308,25.01871,,,,,,,,,,,2,3645
玉龙雪山,102.72408,25.01953,,,,,,,,,,,2,3649
茶苑茶馆,102.72423,25.01895,,,,,,,,,,,2,3661
中国建设银行ATM,102.72336,25.01942,,,,,,,,,,,3,15739
向日葵石斛汽锅鸡,102.72396,25.01968,,,,,,,,,,,3,17912
天下客,102.72315,25.01882,,,,,,,,,,,3,22502
建新园永平店,102.72315,25.01882,,,,,,,,,,,3,23501
温泉亿翡翠大酒店－餐厅,102.7242,25.0189,,,,,,,,,,,3,23898
建新园永平店,102.72315,25.01882,,,,,,,,,,,3,24723
湘府老妈家厨,102.7241,25.01947,,,,,,,,,,,3,25475
南窑美食广场,102.7246,25.01976,,,,,,,,,,,3,25968
福建·范记沙县小吃,102.72314,25.01913,,,,,,,,,,,3,26273
醉美农家普洱,102.72423,25.01993,,,,,,,,,,,3,26277
新巴饭店,102.72352,25.01848,,,,,,,,,,,3,28734
 ,102.72392509999999,25.01878374,,,,,,,,,,,3,48151
颐华酒店水疗会所,102.72391,25.019660000000002,,,,,,,,,,,3,51903
银钻娱乐,102.72391,25.019660000000002,,,,,,,,,,,3,52765
颐华国际商务酒店棋牌室,102.72375,25.01959,,,,,,,,,,,3,53111
颐华国际商务酒店－网吧,102.72391,25.019660000000002,,,,,,,,,,,3,53712
翡翠时光水疗会所,102.7242,25.0189,,,,,,,,,,,3,53744
颐华国际商务酒店－美容美发,102.72391,25.019660000000002,,,,,,,,,,,3,53788
温泉亿翡翠大酒店－棋牌室,102.7242,25.0189,,,,,,,,,,,3,56039
网络休闲会所,102.7232,25.01894,,,,,,,,,,,3,57738
红房子国际商务娱乐会所,102.72391,25.019660000000002,,,,,,,,,,,3,57897
颐华国际商务酒店－足疗保健按摩中心,102.72391,25.019660000000002,,,,,,,,,,,3,58336
南窑天维诊所,102.723567,25.018594,,,,,,,,,,,3,60375
鑫昌茂大药房,102.723189,25.018566,,,,,,,,,,,3,64224
颐华国际商务酒店,102.72391,25.019660000000002,,,,,,,,,,,3,66574
通怡商务酒店,102.72383,25.01911,,,,,,,,,,,3,67576
温泉亿翡翠大酒店,102.7242,25.0189,,,,,,,,,,,3,67986
通怡旅游大厦,102.72395999999999,25.01905,,,,,,,,,,,3,69840
火车站长途汽车客运站(官渡区南站幼儿园西北),102.72328,25.01715,,,,,,,,,,,2,4576
昆明铁路大厦,102.72297,25.01717,,,,,,,,,,,2,4578
德克士(昆明站店),102.7224,25.01634,,,,,,,,,,,2,4575
建新园过桥米线,102.7216262,25.01697243,,,,,,,,,,,2,4572
红遍天饭庄,102.72208,25.016462,,,,,,,,,,,2,4577
中国民生银行ATM,102.72193,25.01616,,,,,,,,,,,3,15212
昆明火车站,102.7217467,25.01523444,,,,,,,,,,,2,4571
昆明站,102.721771,25.0154,,,,,,,,,,,2,4574
醉云喃,102.72204,25.01521,,,,,,,,,,,2,4581
快乐甲鱼鲍鱼元,102.722,25.0152,,,,,,,,,,,2,4582
昆明火车站,102.721697,25.01584,,,,,,,,,,,3,12888
昆明站,102.721697,25.01584,,,,,,,,,,,3,12897
中国建设银行ATM,102.72175,25.01613,,,,,,,,,,,3,15738
富滇银行ATM,102.72149,25.0161,,,,,,,,,,,3,15910
 ,102.7210223,25.01548047,,,,,,,,,,,3,45843
 ,102.72165340000001,25.01567789,,,,,,,,,,,3,47341
 ,102.7211481,25.01586635,,,,,,,,,,,3,51634
铁道宾馆,102.72180999999999,25.01613,,,,,,,,,,,3,66410
康师傅私房牛肉面馆－昆明站分店,102.72202,25.01617,,,,,,,,,,,3,20750
昆明火车站长途汽车客运站售票处,102.72282,25.01658,,,,,,,,,,,2,4579
昆明铁路公安局昆明车站派出所,102.722566,25.01624,,,,,,,,,,,3,8440
四川食坊,102.72283,25.0169,,,,,,,,,,,3,16895
德克士昆明站餐厅,102.72211,25.01618,,,,,,,,,,,3,20749
建新园昆明站店,102.72219,25.01619,,,,,,,,,,,3,20751
川味园饭庄,102.72284,25.01687,,,,,,,,,,,3,20901
建新园昆明站店,102.72219,25.01619,,,,,,,,,,,3,27248
 ,102.72288940000001,25.01560575,,,,,,,,,,,3,46480
昆明铁路大厦,102.72282,25.017,,,,,,,,,,,3,66448
昆明铁路大厦,102.72282,25.017,,,,,,,,,,,3,69450
昆明铁路公安处乘警支队,102.72309,25.01738,,,,,,,,,,,2,4584
昆明铁路公安处乘警支队,102.72298,25.017521,,,,,,,,,,,3,9100
川味百姓餐厅,102.72301,25.01721,,,,,,,,,,,3,20752
泸州饭店,102.72351,25.01725,,,,,,,,,,,3,23664
广安饭店,102.72356,25.01725,,,,,,,,,,,3,24444
富顺豆花饭,102.72333,25.01784,,,,,,,,,,,3,24816
重庆家常菜,102.72325,25.01722,,,,,,,,,,,3,26722
吃饭吧,102.72316,25.01721,,,,,,,,,,,3,26921
王记草墩饭店,102.72327,25.01699,,,,,,,,,,,3,27640
兰州系列拉面刀削面,102.72326,25.01705,,,,,,,,,,,3,27666
世纪名剪,102.72332,25.01774,,,,,,,,,,,3,55587
世纪名剪,102.72333,25.0175,,,,,,,,,,,3,56879
铁路大厦附楼,102.72351,25.01707,,,,,,,,,,,3,66966
新吧面馆,102.72328,25.0183,,,,,,,,,,,3,20898
重庆家常菜馆,102.72309,25.01857,,,,,,,,,,,3,27641
曲直空间,102.7233,25.01807,,,,,,,,,,,3,59739
昆明公交集团里程快捷酒店,102.72325,25.01849,,,,,,,,,,,3,65304
