name,longitude,latitude,phone,address,district,city,area,zipcodetype,datatype,date,creator,source,index
 ,102.690949,25.00963367,,,,,,,,,,,3,31627
贵州六盘水吴三羊肉米线NO．12,102.69002,25.0093,,,,,,,,,,,3,17413
吉丰园,102.69003,25.00963,,,,,,,,,,,3,19157
大理味道,102.69018,25.00943,,,,,,,,,,,3,19158
胖子极品冒菜NO．9,102.69014,25.00953,,,,,,,,,,,3,19814
杨记富源酸菜猪脚火锅（李家地分店）,102.68994,25.00976,,,,,,,,,,,3,20315
天隆财饭店,102.68997,25.00938,,,,,,,,,,,3,21275
正宗富源酸菜猪脚鸡鱼火锅,102.69035,25.00924,,,,,,,,,,,3,21942
大理南涧耙肉饵丝昆明一号店,102.6898,25.00953,,,,,,,,,,,3,22031
沙县小吃,102.68989,25.00946,,,,,,,,,,,3,22711
傣香园光林煮品店,102.69017,25.00946,,,,,,,,,,,3,22799
川味园,102.69,25.00969,,,,,,,,,,,3,23640
正宗富源酸菜猪脚,102.6908,25.00875,,,,,,,,,,,3,23940
广安麻哥面,102.68966,25.00971,,,,,,,,,,,3,24180
老字号马街罗非鱼馆,102.69014,25.00949,,,,,,,,,,,3,24190
圣灵小吃,102.69056,25.00866,,,,,,,,,,,3,25009
泸州饭店,102.69046,25.00913,,,,,,,,,,,3,25114
小小饮吧李家地餐厅,102.68993,25.00943,,,,,,,,,,,3,25436
王氏光头烧鸡脚,102.69026,25.00935,,,,,,,,,,,3,25723
 ,102.6900639,25.00956806,,,,,,,,,,,3,33981
 ,102.6901935,25.00937487,,,,,,,,,,,3,34510
 ,102.6898283,25.00973942,,,,,,,,,,,3,35318
 ,102.690031,25.00922714,,,,,,,,,,,3,36122
 ,102.69041,25.00953053,,,,,,,,,,,3,37219
 ,102.6907873,25.00977492,,,,,,,,,,,3,39178
 ,102.6908172,25.00970684,,,,,,,,,,,3,40445
 ,102.6906615,25.00970909,,,,,,,,,,,3,44944
 ,102.6907454,25.00975796,,,,,,,,,,,3,44989
 ,102.69052690000001,25.00962534,,,,,,,,,,,3,45828
 ,102.68997209999999,25.00947122,,,,,,,,,,,3,45918
 ,102.6904579,25.00957242,,,,,,,,,,,3,45969
 ,102.69069350000001,25.00973307,,,,,,,,,,,3,47493
 ,102.69012959999999,25.00962395,,,,,,,,,,,3,47620
 ,102.6904261,25.0095465,,,,,,,,,,,3,47792
 ,102.69058879999999,25.00965824,,,,,,,,,,,3,47861
慧通网络,102.68978,25.00962,,,,,,,,,,,3,54777
名姿地时尚烫染店,102.68966999999999,25.00969,,,,,,,,,,,3,55312
东方亮点发型设计中心,102.69074,25.00882,,,,,,,,,,,3,56175
春晓休闲地带,102.68978,25.00962,,,,,,,,,,,3,57489
西山区福源口腔诊所,102.690454,25.008789,,,,,,,,,,,3,61735
兴盛药品经营店,102.69006,25.009261,,,,,,,,,,,3,64575
鸿运招待所,102.68978,25.0093,,,,,,,,,,,3,65257
鸿运来招待所,102.68961999999999,25.00945,,,,,,,,,,,3,67391
阳光招待所,102.69005,25.00901,,,,,,,,,,,3,67399
兴盈招待所,102.6897,25.00937,,,,,,,,,,,3,67673
亚龙小区,102.69187,25.00856,,,,,,,,,,,2,4233
贵州六盘水羊肉米线馆(前新路),102.691345,25.007795,,,,,,,,,,,2,4227
亚龙自选,102.69139,25.00662,,,,,,,,,,,2,4204
石城堡,102.691414,25.007364,,,,,,,,,,,2,4216
福娃娃幼儿园,102.690596,25.006724,,,,,,,,,,,3,10572
昆明市西山福泰幼儿园,102.69178,25.007006,,,,,,,,,,,3,11836
德庄·仙客隆,102.69153,25.00676,,,,,,,,,,,3,17796
曾氏成都担担面亚龙店,102.69174,25.007,,,,,,,,,,,3,21274
麦香园,102.69198,25.00701,,,,,,,,,,,3,23591
正宗手工牛肉拉面王,102.69157,25.007,,,,,,,,,,,3,24241
美怡乐冰淇淋超市,102.69124,25.00676,,,,,,,,,,,3,24569
兄弟饭店,102.69117,25.007,,,,,,,,,,,3,26020
味源烧烤,102.69193,25.00702,,,,,,,,,,,3,27622
王掌柜快餐店,102.69137,25.00746,,,,,,,,,,,3,27709
环球发型研修会所,102.69103,25.00675,,,,,,,,,,,3,52844
亚隆棋牌茶室,102.69142,25.00659,,,,,,,,,,,3,53251
新一派发艺专业烫染沙龙,102.69188,25.00701,,,,,,,,,,,3,55017
金宝浴足,102.6914,25.007260000000002,,,,,,,,,,,3,56932
兰雅阁棋牌室,102.691,25.00625,,,,,,,,,,,3,57520
亚龙棋牌室茶室,102.69108,25.00584,,,,,,,,,,,3,59564
好朋友足浴道,102.69100999999999,25.006,,,,,,,,,,,3,59864
西山区协和诊所,102.69112700000001,25.006752,,,,,,,,,,,3,61890
西山区关树昆诊所,102.691074,25.006273999999998,,,,,,,,,,,3,63075
兴盛药店,102.691552,25.007005,,,,,,,,,,,3,63980
济仁大药房,102.69051,25.006999,,,,,,,,,,,3,64717
亚龙招待所,102.69202,25.00725,,,,,,,,,,,3,67671
文山早点,102.69098,25.00854,,,,,,,,,,,3,18889
广东生猛海鲜砂锅粥,102.69128,25.00805,,,,,,,,,,,3,25269
湘香饭馆,102.69131,25.00786,,,,,,,,,,,3,27516
重庆口福烧鸡公总店,102.69106,25.00845,,,,,,,,,,,3,27953
个旧烧烤鸡脚王,102.69128,25.00806,,,,,,,,,,,3,27994
清真昭通特色小吃,102.69106,25.00799,,,,,,,,,,,3,28391
吃一锅富源酸菜猪脚火锅,102.69073,25.00814,,,,,,,,,,,3,28432
 ,102.6915077,25.0085408,,,,,,,,,,,3,32157
 ,102.6910867,25.00863147,,,,,,,,,,,3,37538
 ,102.6904379,25.00810254,,,,,,,,,,,3,44038
 ,102.6911484,25.00826139,,,,,,,,,,,3,46109
 ,102.69072940000001,25.00780311,,,,,,,,,,,3,46200
 ,102.69139,25.00845201,,,,,,,,,,,3,46501
 ,102.6905666,25.00822535,,,,,,,,,,,3,47758
 ,102.69070740000001,25.00832412,,,,,,,,,,,3,51508
今朝网苑福泰店,102.69078,25.00841,,,,,,,,,,,3,56553
灵验诊房,102.691016,25.008125,,,,,,,,,,,3,61972
超愈诊所,102.690372,25.00796,,,,,,,,,,,3,62774
ｅ家旅社,102.69078,25.00815,,,,,,,,,,,3,66053
八方客房部,102.69091,25.0082,,,,,,,,,,,3,67119
月亮弯招待所,102.69136,25.00754,,,,,,,,,,,3,67606
华泰旅社,102.69124000000001,25.00816,,,,,,,,,,,3,67638
鸿客多酸菜猪脚,102.69089,25.00864,,,,,,,,,,,3,24742
 ,102.6915046,25.0089408,,,,,,,,,,,3,33171
 ,102.6921024,25.00846286,,,,,,,,,,,3,33459
 ,102.6914798,25.00890485,,,,,,,,,,,3,36531
 ,102.691337,25.00920207,,,,,,,,,,,3,37172
 ,102.6913669,25.00885202,,,,,,,,,,,3,41760
 ,102.6919238,25.00863417,,,,,,,,,,,3,41772
 ,102.69149559999998,25.00892181,,,,,,,,,,,3,41878
 ,102.6911484,25.00868939,,,,,,,,,,,3,42407
 ,102.6914598,25.00905087,,,,,,,,,,,3,44098
 ,102.69136800000001,25.00916099,,,,,,,,,,,3,44329
 ,102.6912712,25.00927416,,,,,,,,,,,3,46110
 ,102.6925034,25.00826625,,,,,,,,,,,3,46407
 ,102.69218409999999,25.00841975,,,,,,,,,,,3,46855
 ,102.6920185,25.00854602,,,,,,,,,,,3,47266
 ,102.6918608,25.00867427,,,,,,,,,,,3,47343
 ,102.6924595,25.00828232,,,,,,,,,,,3,51509
 ,102.6909977,25.00955456,,,,,,,,,,,3,35098
