name,longitude,latitude,phone,address,district,city,area,zipcodetype,datatype,date,creator,source,index
避风港餐厅,102.73425,25.07638,,,,,,,,,,,3,20939
农村信用社ATM,102.73406,25.07745,,,,,,,,,,,3,13071
刘记农家乐金实店,102.73413,25.07679,,,,,,,,,,,3,21572
椰皇饭庄金实店,102.73425,25.07661,,,,,,,,,,,3,24771
 ,102.7337074,25.07826546,,,,,,,,,,,3,43004
 ,102.73404599999999,25.07807628,,,,,,,,,,,3,50481
溪源花花溪清汤鹅全国连锁昆明总店,102.73421,25.07543,,,,,,,,,,,3,17527
德宏风味园金实总店,102.73521,25.07613,,,,,,,,,,,3,17294
老三烧烤,102.73505,25.0764,,,,,,,,,,,3,17295
振滇苑,102.73473,25.07567,,,,,,,,,,,3,17927
瑞兴园农家菜草墩屋东站老字号NO．2,102.73468,25.07599,,,,,,,,,,,3,19280
老碗羊汤锅,102.73429,25.07617,,,,,,,,,,,3,19406
农乐吧带皮羊肉米线,102.73513,25.07571,,,,,,,,,,,3,19772
抚仙湖石锅鱼,102.73619,25.07735,,,,,,,,,,,3,16814
三样菜,102.73592,25.07739,,,,,,,,,,,3,17547
小泽大排卤面,102.73613,25.07726,,,,,,,,,,,3,18668
张记粤海名城海鲜坊,102.7356,25.07663,,,,,,,,,,,3,20032
重庆石磨豆花,102.7361,25.07723,,,,,,,,,,,3,20990
沙县特色小吃金秋路店,102.73543,25.07683,,,,,,,,,,,3,21150
重庆临江门洞子老火锅,102.73584,25.07688,,,,,,,,,,,3,22676
贺·王老麻抄手金实店,102.73616,25.0773,,,,,,,,,,,3,24440
王记富源老坛酸菜猪脚火锅,102.73605,25.07718,,,,,,,,,,,3,25239
仕小锅金实店,102.73593,25.077,,,,,,,,,,,3,25441
铭记重庆老火锅,102.73554,25.07696,,,,,,,,,,,3,25827
盘县干锅牛肉昆明总店,102.7358,25.07723,,,,,,,,,,,3,25828
红记美食,102.73546,25.07687,,,,,,,,,,,3,25916
红河王记干锅旱鸭金实店,102.73578,25.07681,,,,,,,,,,,3,26166
真真纸上烤肉城金实店,102.73585,25.07731,,,,,,,,,,,3,26622
百品和,102.73568,25.0771,,,,,,,,,,,3,27156
保山火塘牛肉,102.73597,25.07704,,,,,,,,,,,3,27850
重庆鸭脚板昆明总店,102.73573,25.07718,,,,,,,,,,,3,27851
陕西小吃,102.73589,25.07696,,,,,,,,,,,3,28240
德鑫酸汤猪蹄火锅,102.73595,25.07744,,,,,,,,,,,3,28285
 ,102.7362555,25.07692005,,,,,,,,,,,3,30076
 ,102.7362546,25.07730602,,,,,,,,,,,3,30116
 ,102.7361576,25.07698512,,,,,,,,,,,3,32812
 ,102.7360208,25.07736416,,,,,,,,,,,3,34138
 ,102.7366351,25.07684684,,,,,,,,,,,3,36676
 ,102.735887,25.07744223,,,,,,,,,,,3,37608
 ,102.7365763,25.07720985,,,,,,,,,,,3,39240
 ,102.7354745,25.07734751,,,,,,,,,,,3,40962
 ,102.7364063,25.07726493,,,,,,,,,,,3,41024
 ,102.7356572,25.07687042,,,,,,,,,,,3,43020
 ,102.7355393,25.07730647,,,,,,,,,,,3,43088
 ,102.7359439,25.0774142,,,,,,,,,,,3,43304
 ,102.736681,25.07684081,,,,,,,,,,,3,44773
 ,102.73582009999998,25.07663831,,,,,,,,,,,3,45961
 ,102.73681490000001,25.07680971,,,,,,,,,,,3,48521
 ,102.7360118,25.07699318,,,,,,,,,,,3,51363
发彩艺专业发型设计,102.73614,25.077679999999997,,,,,,,,,,,3,53237
艺廊印象烫染店,102.73631,25.07745,,,,,,,,,,,3,57602
东骏大药房金秋路连锁店,102.735686,25.077113,,,,,,,,,,,3,60807
一心堂金秋路连锁NO．2,102.735585,25.076971,,,,,,,,,,,3,64698
七婆串串香火锅,102.73544,25.07642,,,,,,,,,,,3,22008
溪源花花溪清汤鹅,102.7344,25.07611,,,,,,,,,,,3,23637
金菊牛菜馆,102.73506,25.07576,,,,,,,,,,,3,23656
昭通刘一家,102.73501,25.07578,,,,,,,,,,,3,23716
胖娘小吃烧烤,102.73503,25.07597,,,,,,,,,,,3,26164
大羊米线金实NO．1,102.73536,25.07675,,,,,,,,,,,3,26165
傅家蹄花和面四川菜馆,102.73535,25.07627,,,,,,,,,,,3,27053
大理白族风味小吃,102.73441,25.07567,,,,,,,,,,,3,27849
沈阳饺子王,102.73496,25.0758,,,,,,,,,,,3,27889
屋头串串香,102.73528,25.07663,,,,,,,,,,,3,28277
尹赖仕烧烤大师全国连锁NO．7,102.73553,25.07655,,,,,,,,,,,3,28732
 ,102.7353676,25.07572265,,,,,,,,,,,3,35214
 ,102.7353935,25.07576463,,,,,,,,,,,3,36820
 ,102.7354554,25.07585855,,,,,,,,,,,3,37239
 ,102.7354765,25.07645453,,,,,,,,,,,3,49410
 ,102.7349809,25.07544788,,,,,,,,,,,3,50335
缅泰足疗,102.73498000000001,25.07553,,,,,,,,,,,3,54218
小天飞烫染阁NO．288,102.73541999999999,25.07526,,,,,,,,,,,3,54940
足养千年足浴服务部,102.73519,25.075429999999997,,,,,,,,,,,3,56077
孔雀足疗按摩,102.73562,25.07545,,,,,,,,,,,3,57802
荣康保健休闲,102.73557,25.07545,,,,,,,,,,,3,57803
健之佳健康药房,102.735353,25.075596,,,,,,,,,,,3,60546
金鹿药店,102.73527800000001,25.075633,,,,,,,,,,,3,63702
 ,102.7345864,25.07465615,,,,,,,,,,,3,31940
 ,102.7346173,25.07492012,,,,,,,,,,,3,37021
 ,102.7346004,25.07480613,,,,,,,,,,,3,49321
 ,102.7350428,25.07502587,,,,,,,,,,,3,50136
鑫琳专业发型设计工作室,102.73406,25.075210000000002,,,,,,,,,,,3,52941
赵氏兄弟专业修脚房金实NO．3,102.73443,25.075329999999997,,,,,,,,,,,3,55137
安康盲人按摩,102.73429,25.07552,,,,,,,,,,,3,57997
