name,longitude,latitude,phone,address,district,city,area,zipcodetype,datatype,date,creator,source,index
董家湾小学,102.734684,25.035023,,,,,,,,,,,3,12145
阳光闲庭靓景酒楼,102.73596,25.0353,,,,,,,,,,,2,5459
春城明珠,102.73682,25.03601,,,,,,,,,,,2,5450
茗苑茶室,102.73619,25.03564,,,,,,,,,,,2,5463
大拇指科学幼儿园,102.737159,25.035359,,,,,,,,,,,3,11048
弥勒李记卤鸡米线,102.73672,25.0356,,,,,,,,,,,3,21753
 ,102.7362049,25.03592604,,,,,,,,,,,3,29175
 ,102.7362857,25.03566,,,,,,,,,,,3,32473
 ,102.7367651,25.03591254,,,,,,,,,,,3,33033
 ,102.7370266,25.03563228,,,,,,,,,,,3,35882
 ,102.7368668,25.03591245,,,,,,,,,,,3,39100
 ,102.7371555,25.03564119,,,,,,,,,,,3,39965
 ,102.7372343,25.03590912,,,,,,,,,,,3,41212
 ,102.7371555,25.03590318,,,,,,,,,,,3,41213
 ,102.7366213,25.03590966,,,,,,,,,,,3,41214
 ,102.73611600000001,25.03567512,,,,,,,,,,,3,43685
桂华新园(朝阳路),102.73829,25.03522,,,,,,,,,,,2,5431
董北社区卫生服务站(朝阳路),102.7386,25.03524,,,,,,,,,,,2,5434
一壶春早,102.73808,25.03528,,,,,,,,,,,2,5440
昆明市官渡区曙光小学,102.73978,25.03571,,,,,,,,,,,2,5424
华润置地·悦府,102.74082,25.03543,,,,,,,,,,,1,117
昆明市公安局官渡分局曙光派出所,102.740296,25.035323,,,,,,,,,,,3,6537
新承汇便民托幼园,102.740542,25.035685,,,,,,,,,,,3,12548
 ,102.7400153,25.03560555,,,,,,,,,,,3,29475
 ,102.740944,25.03588964,,,,,,,,,,,3,32772
 ,102.7413148,25.03591668,,,,,,,,,,,3,43272
 ,102.7399104,25.03562351,,,,,,,,,,,3,47827
 ,102.74099090000001,25.03589562,,,,,,,,,,,3,49178
 ,102.7410899,25.03590165,,,,,,,,,,,3,49413
云南省安监局,102.739091,25.035369,,,,,,,,,,,3,7488
香樟俊园二期,102.7392011,25.03435991,,,,,,,,,,,1,217
吴井街道办事处董家湾北段社区为民服务站,102.7392,25.035002,,,,,,,,,,,3,7688
曙光妇科诊所,102.739255,25.034343,,,,,,,,,,,3,63836
昆明仲裁委,102.739091,25.035369,,,,,,,,,,,3,8525
云南省煤矿安全生产监督管理局,102.739091,25.035369,,,,,,,,,,,3,8774
曙光小学,102.739696,25.035592,,,,,,,,,,,3,12456
 ,102.73905359999999,25.03565235,,,,,,,,,,,3,40353
 ,102.7394365,25.03563845,,,,,,,,,,,3,46018
林瑞推拿按摩店,102.73899999999999,25.03596,,,,,,,,,,,3,55627
邹氏推拿足浴,102.73901,25.03591,,,,,,,,,,,3,55674
中国建设银行ATM,102.73758,25.03537,,,,,,,,,,,3,14767
中国建设银行昆明黎明支行,102.73751,25.03535,,,,,,,,,,,3,15564
中国民生银行ATM,102.73751,25.03474,,,,,,,,,,,3,15587
壮元风味小吃,102.73871,25.03536,,,,,,,,,,,3,24368
 ,102.738137,25.03563129,,,,,,,,,,,3,29472
 ,102.7386108,25.03565127,,,,,,,,,,,3,29967
 ,102.7379783,25.03563341,,,,,,,,,,,3,32972
 ,102.7379783,25.03589342,,,,,,,,,,,3,39859
 ,102.73814890000001,25.03589324,,,,,,,,,,,3,41210
 ,102.7379093,25.03589648,,,,,,,,,,,3,41211
 ,102.73745,25.03563089,,,,,,,,,,,3,43892
 ,102.7386938,25.03564331,,,,,,,,,,,3,48310
同悦足疗,102.73793,25.03559,,,,,,,,,,,3,52362
名阳光皮肤美疗生活馆NO．5,102.7383,25.03536,,,,,,,,,,,3,53147
巧手剪理发室,102.7378,25.0356,,,,,,,,,,,3,54541
源康盲人推拿馆,102.73873,25.03567,,,,,,,,,,,3,54871
白领丽人美容美体养生馆,102.73753,25.03477,,,,,,,,,,,3,55259
冲击波星级网吧,102.7375,25.03527,,,,,,,,,,,3,55260
秀姿女子减肥院曙光分店,102.73777,25.0356,,,,,,,,,,,3,56845
凯宝,102.73850999999999,25.03536,,,,,,,,,,,3,57515
可可韩衣社,102.73751,25.03572,,,,,,,,,,,3,57675
一心堂桂华新园连锁NO．1,102.737495,25.035197,,,,,,,,,,,3,60675
福林堂朝阳国药店,102.737695,25.035369,,,,,,,,,,,3,60776
吴井曙光社区卫生站,102.73755,25.034642,,,,,,,,,,,3,61040
栋梁诊所,102.738648,25.035352,,,,,,,,,,,3,63697
昆锅楼北门,102.73763000000001,25.03537,,,,,,,,,,,3,69225
昆锅楼,102.7375,25.03527,,,,,,,,,,,3,69558
 ,102.7365554,25.03590674,,,,,,,,,,,3,46742
 ,102.7366902,25.03591259,,,,,,,,,,,3,47086
 ,102.736751,25.03562054,,,,,,,,,,,3,48073
 ,102.7369478,25.03561739,,,,,,,,,,,3,48335
 ,102.7368479,25.03561946,,,,,,,,,,,3,48903
 ,102.7364634,25.0359098,,,,,,,,,,,3,49157
 ,102.7363556,25.0359129,,,,,,,,,,,3,49158
 ,102.73654930000001,25.03563273,,,,,,,,,,,3,50542
和木养生馆朝阳分店,102.73706,25.0356,,,,,,,,,,,3,52727
韩意造型,102.73696,25.035610000000002,,,,,,,,,,,3,56394
金莎妮国际美容机构容康养生,102.73674,25.0356,,,,,,,,,,,3,57447
印记PUB,102.73684,25.0356,,,,,,,,,,,3,58251
荣裕足浴室,102.7375,25.03578,,,,,,,,,,,3,58597
昆明康地动物诊所,102.737215,25.036125,,,,,,,,,,,3,63797
晨曦口腔,102.736845,25.035609,,,,,,,,,,,3,64309
银滩体育羽毛球馆,102.73596,25.0353,,,,,,,,,,,2,5469
昆明市精神卫生防治医院(环城东路),102.73464,25.03603,,,,,,,,,,,2,5343
新菜楼饭店,102.73505,25.03561,,,,,,,,,,,3,18352
成都担担面,102.73483,25.03562,,,,,,,,,,,3,18520
缘圆桂金草墩,102.7352,25.03634,,,,,,,,,,,3,19806
正宗富源酸菜土猪脚火锅,102.73527,25.03578,,,,,,,,,,,3,24615
梁记顺兴园餐厅,102.73494,25.03596,,,,,,,,,,,3,24616
酸萝卜乌江鱼火锅,102.73519,25.03651,,,,,,,,,,,3,25808
张记卤面馆,102.735,25.03561,,,,,,,,,,,3,27316
 ,102.7354939,25.03564871,,,,,,,,,,,3,29427
 ,102.73543199999999,25.03564677,,,,,,,,,,,3,43993
 ,102.7354219,25.03592676,,,,,,,,,,,3,46428
 ,102.73468100000001,25.03568844,,,,,,,,,,,3,47504
 ,102.73517640000001,25.03592798,,,,,,,,,,,3,49160
昆明市精神卫生防治医院董家湾门诊部,102.734758,25.035974,,,,,,,,,,,3,62817
阳光闲庭靓景酒楼,102.73621,25.03513,,,,,,,,,,,3,25096
江湖川菜NO．6,102.73539,25.03468,,,,,,,,,,,3,28079
瑞欣贡米傣味厅,102.73542,25.03459,,,,,,,,,,,3,28748
 ,102.7360721,25.03499918,,,,,,,,,,,3,33887
 ,102.7357954,25.03537542,,,,,,,,,,,3,36969
 ,102.7357974,25.03615244,,,,,,,,,,,3,37458
 ,102.73580749999999,25.03547244,,,,,,,,,,,3,39630
 ,102.7360949,25.03489217,,,,,,,,,,,3,41209
 ,102.7356377,25.03564857,,,,,,,,,,,3,44101
 ,102.7357265,25.03566248,,,,,,,,,,,3,44483
 ,102.73578140000001,25.03448348,,,,,,,,,,,3,46773
 ,102.7357205,25.0359215,,,,,,,,,,,3,49159
 ,102.7358095,25.03522944,,,,,,,,,,,3,49161
 ,102.7357954,25.03528646,,,,,,,,,,,3,50717
 ,102.7357654,25.03504949,,,,,,,,,,,3,51103
 ,102.7357884,25.03564245,,,,,,,,,,,3,51641
鑫旺足疗,102.73602,25.03514,,,,,,,,,,,3,52818
银滩体育中心,102.73602,25.03514,,,,,,,,,,,3,53412
银滩泳馆,102.73614,25.03514,,,,,,,,,,,3,54542
烟机大楼,102.73602,25.03514,,,,,,,,,,,3,69305
董家湾,102.7337494,25.034338,,,,,,,,,,,2,5344
南天电子信息产业集团公司,102.73415,25.03357,,,,,,,,,,,2,5359
昆明体育电子设备研究所,102.733405,25.035118,,,,,,,,,,,3,11688
 ,102.7332083,25.03465682,,,,,,,,,,,3,30015
 ,102.7331953,25.03504283,,,,,,,,,,,3,30754
 ,102.7338822,25.03371524,,,,,,,,,,,3,32025
 ,102.7331932,25.03500584,,,,,,,,,,,3,38459
 ,102.7331872,25.03492187,,,,,,,,,,,3,41886
 ,102.7337395,25.03394937,,,,,,,,,,,3,43404
 ,102.73319529999999,25.03507883,,,,,,,,,,,3,49443
 ,102.7332092,25.03493483,,,,,,,,,,,3,49497
章光101,102.73467,25.03451,,,,,,,,,,,3,58181
物资公司招待所,102.73425,25.03518,,,,,,,,,,,3,67650
