name,longitude,latitude,phone,address,district,city,area,zipcodetype,datatype,date,creator,source,index
吴井茶庄,102.72686,25.02685,,,,,,,,,,,2,3545
中国民生银行ATM,102.72708,25.02671,,,,,,,,,,,3,13520
广发银行ATM,102.7263,25.02691,,,,,,,,,,,3,13790
石井小区,102.72658,25.02803,,,,,,,,,,,2,3541
芋贵人昆明南亚店,102.7265872,25.02849044,,,,,,,,,,,2,3559
吉祥宝贝,102.726758,25.028298,,,,,,,,,,,3,9733
中国光大银行ATM,102.72637,25.02739,,,,,,,,,,,3,14671
弥勒卤鸡米线,102.72651,25.02764,,,,,,,,,,,3,21679
吴井桥老马小吃,102.72641,25.02756,,,,,,,,,,,3,25002
苏记隐蔽地,102.72647,25.0276,,,,,,,,,,,3,26409
 ,102.7266026,25.02725607,,,,,,,,,,,3,33360
 ,102.7265656,25.02820004,,,,,,,,,,,3,43906
 ,102.7266925,25.02805496,,,,,,,,,,,3,44395
 ,102.7273905,25.02781533,,,,,,,,,,,3,46323
 ,102.7267304,25.02800793,,,,,,,,,,,3,49019
宇彩本草皮肤护理,102.72641,25.02733,,,,,,,,,,,3,56907
锦伦假日酒店,102.72584,25.027839999999998,,,,,,,,,,,3,68119
广发银行吴井路支行,102.72634,25.02689,,,,,,,,,,,3,15997
唐会小黄牛带皮牛肉米线,102.72624,25.02697,,,,,,,,,,,3,17245
吴井桥公交站,102.72685,25.02572,,,,,,,,,,,2,3534
佳路达世纪酒店,102.72795,25.02601,,,,,,,,,,,2,3532
云路中心,102.727404,25.025651,,,,,,,,,,,2,3543
云南省广播电视学校,102.72783,25.02512,,,,,,,,,,,2,3573
钟惠培训学校,102.72785,25.02531,,,,,,,,,,,2,3581
佳路达酒店,102.728163,25.02619,,,,,,,,,,,2,3584
云南省公路局,102.728571,25.026547,,,,,,,,,,,3,6754
北京四中网校昆明分校,102.727952,25.025345,,,,,,,,,,,3,10214
云南省广播电视学校,102.727952,25.025345,,,,,,,,,,,3,11514
昆明钟惠培训学校,102.727952,25.025345,,,,,,,,,,,3,11647
中国工商银行环南支行,102.72818,25.02613,,,,,,,,,,,3,12988
中国工商银行ATM,102.72828,25.0262,,,,,,,,,,,3,12989
中国平安人寿保险股份有限公司云南分公司寿险培训中心,102.72701,25.02626,,,,,,,,,,,3,13295
中国平安人寿保险云南分公司客服中心,102.72701,25.02626,,,,,,,,,,,3,15605
年安保险超市,102.72839,25.02626,,,,,,,,,,,3,15775
吴井人家,102.72752,25.02583,,,,,,,,,,,3,17709
缘份小吃店,102.72792,25.0252,,,,,,,,,,,3,20387
5家卤面馆旗舰店,102.72778,25.02535,,,,,,,,,,,3,25432
天福园小吃,102.72796,25.02523,,,,,,,,,,,3,25433
佳路达酒店－向日葵厅,102.72808,25.02602,,,,,,,,,,,3,27290
佳路达酒店－云路宫中餐厅,102.72808,25.02602,,,,,,,,,,,3,27489
 ,102.7286575,25.02607523,,,,,,,,,,,3,29139
 ,102.7281982,25.02672561,,,,,,,,,,,3,30378
 ,102.7283409,25.0261205,,,,,,,,,,,3,30620
 ,102.7286474,25.02610124,,,,,,,,,,,3,30786
 ,102.7284687,25.02638739,,,,,,,,,,,3,31625
 ,102.7285148,25.02631134,,,,,,,,,,,3,33369
 ,102.7282801,25.02661856,,,,,,,,,,,3,36989
 ,102.7281233,25.02681368,,,,,,,,,,,3,37629
 ,102.7285497,25.02626729,,,,,,,,,,,3,40166
 ,102.7287243,25.02602114,,,,,,,,,,,3,41199
 ,102.7282151,25.02670163,,,,,,,,,,,3,43873
 ,102.7283738,25.02647447,,,,,,,,,,,3,46840
 ,102.72881720000001,25.02591107,,,,,,,,,,,3,47078
 ,102.72848979999999,25.02634536,,,,,,,,,,,3,48251
 ,102.72825019999999,25.02665258,,,,,,,,,,,3,48555
 ,102.7280574,25.02689373,,,,,,,,,,,3,50694
 ,102.7281762,25.02676463,,,,,,,,,,,3,50695
 ,102.7288382,25.02590405,,,,,,,,,,,3,51266
Aｎｇｅｌ经典发艺会所小英吴井店,102.72721999999999,25.02656,,,,,,,,,,,3,51945
佳路达酒店－大堂酒吧,102.72808,25.026020000000003,,,,,,,,,,,3,53219
金乐动漫城,102.72774,25.02654,,,,,,,,,,,3,55984
金剪刀美发会所,102.72818000000001,25.0259,,,,,,,,,,,3,56231
佳路达酒店－明日星夜总会,102.72808,25.026020000000003,,,,,,,,,,,3,58605
佳路达酒店－KTV,102.72808,25.026020000000003,,,,,,,,,,,3,58606
佳路达酒店－游泳馆,102.72808,25.026020000000003,,,,,,,,,,,3,59412
佳路达酒店－棋牌室,102.72808,25.026020000000003,,,,,,,,,,,3,59413
佳路达酒店－桑拿中心,102.72808,25.026020000000003,,,,,,,,,,,3,59432
佳路达酒店,102.72808,25.026020000000003,,,,,,,,,,,3,66405
平安银行ATM,102.72677,25.02586,,,,,,,,,,,3,13362
平安银行昆明春城支行,102.72664,25.02577,,,,,,,,,,,3,14107
贝侬朵莱文山壮族风味米线百富琪店,102.72635,25.02642,,,,,,,,,,,3,17379
台湾村,102.72552,25.02569,,,,,,,,,,,2,3522
昆明青年会1933,102.72524,25.02667,,,,,,,,,,,2,3495
女人街,102.72523,25.02667,,,,,,,,,,,2,3505
兴杰站现代城,102.725845,25.026491,,,,,,,,,,,2,3523
富滇银行中山支行,102.7258,25.02654,,,,,,,,,,,3,14028
中信银行春城路支行,102.72569,25.02667,,,,,,,,,,,3,15499
中信银行ATM,102.72569,25.02665,,,,,,,,,,,3,15500
富滇银行ATM,102.7259,25.02652,,,,,,,,,,,3,16078
一品轩川菜馆,102.72535,25.02719,,,,,,,,,,,3,17293
潘家食馆,102.72463,25.02695,,,,,,,,,,,3,18005
江艳阁,102.72609,25.0267,,,,,,,,,,,3,26272
兰州拉面,102.72515,25.02679,,,,,,,,,,,3,28335
首艺佳美时尚美发连锁形象店,102.72515,25.026510000000002,,,,,,,,,,,3,53786
养怡和健康管理机构,102.725812,25.027317,,,,,,,,,,,3,62080
如家快捷酒店春城路店,102.72535,25.02647,,,,,,,,,,,3,65061
如意旅社,102.72453,25.02649,,,,,,,,,,,3,65743
三鑫酒店,102.72535,25.02709,,,,,,,,,,,3,65863
太和旅社,102.72466,25.02712,,,,,,,,,,,3,66218
昆明市太和街道办,102.72457,25.025615,,,,,,,,,,,3,6422
色味云南,102.72634,25.02555,,,,,,,,,,,3,20627
 ,102.7261282,25.02550157,,,,,,,,,,,3,30582
 ,102.7259095,25.02595674,,,,,,,,,,,3,32466
 ,102.72625090000001,25.02518747,,,,,,,,,,,3,40892
 ,102.7259624,25.02583668,,,,,,,,,,,3,43769
百富琪影城,102.72617,25.025389999999998,,,,,,,,,,,3,54819
百富琪商业广场A座,102.72617,25.025389999999998,,,,,,,,,,,3,69518
百富琪商业广场,102.72617,25.025389999999998,,,,,,,,,,,3,69851
腾冲特色饵丝店,102.72673,25.02656,,,,,,,,,,,3,25674
花溪王记牛肉米线,102.72683,25.02641,,,,,,,,,,,3,25676
沙县小吃,102.72701,25.02548,,,,,,,,,,,3,26721
莱特丽美容美体总店,102.72655999999999,25.02516,,,,,,,,,,,3,52752
一心堂环城南路连锁店,102.726365,25.025041,,,,,,,,,,,3,59909
健之佳昆明分部NO．107,102.726784,25.026463,,,,,,,,,,,3,59910
百富琪商业广场B座,102.72663,25.026139999999998,,,,,,,,,,,3,69455
梦香居饭店,102.72653,25.02671,,,,,,,,,,,3,25673
士名专业发型设计,102.72697,25.02679,,,,,,,,,,,3,52424
杨革诊所,102.727005,25.026782,,,,,,,,,,,3,59911
一心堂吴井路连锁NO．2,102.727159,25.026608,,,,,,,,,,,3,60552
吴井,102.726875,25.026905,,,,,,,,,,,3,68695
