name,longitude,latitude,phone,address,district,city,area,zipcodetype,datatype,date,creator,source,index
 ,102.6795242,25.00702002,,,,,,,,,,,3,37366
中国质量认证中心云南评审中心,102.678567,25.006707,,,,,,,,,,,3,7141
阳光咖啡茶,102.67995,25.005802,,,,,,,,,,,2,4294
正和小区和顺巷,102.67967,25.00611,,,,,,,,,,,2,4308
南苑,102.6793,25.00627,,,,,,,,,,,2,4317
粒粒香农家菜馆,102.6805,25.00583,,,,,,,,,,,3,19422
悦沁园,102.68046,25.00578,,,,,,,,,,,3,21744
上鼎私房菜,102.67962,25.00548,,,,,,,,,,,3,21919
回味金锅,102.68038,25.00573,,,,,,,,,,,3,22013
正宗富源酸菜土猪脚火锅,102.68029,25.00566,,,,,,,,,,,3,22713
江川风味小吃,102.68027,25.00535,,,,,,,,,,,3,25166
大草墩风味园（六分店）,102.68082,25.0061,,,,,,,,,,,3,26021
福鑫草墩,102.68064,25.00591,,,,,,,,,,,3,26049
外婆味道时尚菜馆,102.67918,25.00607,,,,,,,,,,,3,26842
宣威年猪饭酒楼,102.67909,25.00548,,,,,,,,,,,3,28865
 ,102.6800131,25.00606922,,,,,,,,,,,3,29597
 ,102.6802264,25.00622879,,,,,,,,,,,3,30447
 ,102.6807152,25.00563695,,,,,,,,,,,3,33295
 ,102.680424,25.00599047,,,,,,,,,,,3,33448
 ,102.6806054,25.00578014,,,,,,,,,,,3,33816
 ,102.6806285,25.0057611,,,,,,,,,,,3,33995
 ,102.6804379,25.00597242,,,,,,,,,,,3,34097
 ,102.6806494,25.00573806,,,,,,,,,,,3,35255
 ,102.6804578,25.0059474,,,,,,,,,,,3,36666
 ,102.6804319,25.00598147,,,,,,,,,,,3,38595
 ,102.680782,25.00551783,,,,,,,,,,,3,38706
 ,102.680379,25.00603452,,,,,,,,,,,3,40090
 ,102.6805037,25.00589732,,,,,,,,,,,3,40277
 ,102.6803561,25.0060586,,,,,,,,,,,3,40834
 ,102.68040490000001,25.00600149,,,,,,,,,,,3,43567
 ,102.6805446,25.00584327,,,,,,,,,,,3,43912
 ,102.6800249,25.0061112,,,,,,,,,,,3,45059
 ,102.6800528,25.00613312,,,,,,,,,,,3,45103
 ,102.6798064,25.00592463,,,,,,,,,,,3,46197
 ,102.6793048,25.00611453,,,,,,,,,,,3,46331
 ,102.6794952,25.00572321,,,,,,,,,,,3,48190
 ,102.68032629999999,25.00610265,,,,,,,,,,,3,49335
 ,102.68066429999999,25.00571507,,,,,,,,,,,3,49377
 ,102.67964190000001,25.00583396,,,,,,,,,,,3,51268
阿镳经络养生,102.68037,25.00606,,,,,,,,,,,3,54352
雅美专业烫染沙龙,102.68049,25.00613,,,,,,,,,,,3,55353
夜空网络,102.68024,25.00561,,,,,,,,,,,3,56411
亲爱的休闲吧,102.68012,25.00585,,,,,,,,,,,3,59552
西山区天明诊所,102.680615,25.005878,,,,,,,,,,,3,62812
田家地公交站,102.68108,25.00704,,,,,,,,,,,2,4292
漾濞回香源,102.68122,25.00644,,,,,,,,,,,3,16655
和顺缘小吃,102.68105,25.0063,,,,,,,,,,,3,16712
羊祥记,102.68191,25.00736,,,,,,,,,,,3,17359
阿四风味,102.68087,25.00744,,,,,,,,,,,3,18663
芙蓉煮品,102.68115,25.00724,,,,,,,,,,,3,18664
颐桥圆铜锅洋芋饭,102.68146,25.0068,,,,,,,,,,,3,20160
建水兄弟烧烤,102.68182,25.00678,,,,,,,,,,,3,21316
靓味酸笋鸡火锅,102.68187,25.00741,,,,,,,,,,,3,21456
三顾毛驴清科品牌连锁店,102.68193,25.0073,,,,,,,,,,,3,22900
彝族牛汤锅,102.68198,25.00702,,,,,,,,,,,3,25140
建水倮倮烧烤,102.68198,25.00702,,,,,,,,,,,3,27813
贵州六盘水羊肉米线馆,102.68133,25.00696,,,,,,,,,,,3,28667
 ,102.6820359,25.00711034,,,,,,,,,,,3,35833
潮流先锋668发艺,102.68135,25.006220000000003,,,,,,,,,,,3,52275
知名度正和店,102.68113000000001,25.00635,,,,,,,,,,,3,52440
发国,102.68053,25.00752,,,,,,,,,,,3,52449
小脚丫浴足,102.68078,25.00635,,,,,,,,,,,3,53959
金剪刀,102.6811,25.00729,,,,,,,,,,,3,54505
猎艳酒吧,102.68174,25.00641,,,,,,,,,,,3,54548
如意茶室,102.68098,25.00655,,,,,,,,,,,3,54677
映象发艺,102.68075,25.00756,,,,,,,,,,,3,56900
发型家,102.6813,25.00698,,,,,,,,,,,3,56901
帝雅,102.68177,25.0076,,,,,,,,,,,3,57610
彩秀,102.68115,25.00669,,,,,,,,,,,3,58388
西山区正和浴足服务部,102.68058,25.007460000000002,,,,,,,,,,,3,59553
西山区田家地东业诊所,102.681139,25.006795,,,,,,,,,,,3,60014
西山区济仁堂诊所,102.680693,25.007345,,,,,,,,,,,3,60624
西山区昱捷诊所,102.681046,25.006961999999998,,,,,,,,,,,3,62752
西山区永顺诊所,102.680685,25.006261,,,,,,,,,,,3,62967
德信大药房,102.681372,25.006919,,,,,,,,,,,3,64567
田园宾馆,102.68122,25.0071,,,,,,,,,,,3,65008
新惠源招待所,102.68153000000001,25.00669,,,,,,,,,,,3,65340
神湘宾馆,102.68083,25.0076,,,,,,,,,,,3,65341
金悦招待所,102.68081,25.00774,,,,,,,,,,,3,65342
鸿源通宾馆,102.68118,25.00716,,,,,,,,,,,3,65632
银海宾馆,102.68125,25.00703,,,,,,,,,,,3,65666
晴朗宾馆,102.68118,25.00716,,,,,,,,,,,3,66036
明缘宾馆,102.68115999999999,25.00735,,,,,,,,,,,3,66320
鸿园旅社,102.68117,25.00641,,,,,,,,,,,3,66833
华园宾馆,102.68141,25.00626,,,,,,,,,,,3,66840
锦鑫宾馆,102.68111999999999,25.00755,,,,,,,,,,,3,66970
百佳旅馆,102.68111,25.007920000000002,,,,,,,,,,,3,67183
聚鑫宾馆,102.6813,25.00618,,,,,,,,,,,3,67198
洪缘宾馆,102.68135,25.0069,,,,,,,,,,,3,67453
福禄招待所,102.68135,25.0069,,,,,,,,,,,3,67454
洪达宾馆,102.68137,25.00686,,,,,,,,,,,3,67455
隆安旅社,102.68099000000001,25.007820000000002,,,,,,,,,,,3,67589
金泰宾馆,102.6814,25.00769,,,,,,,,,,,3,68263
海悦宾馆,102.68097,25.00768,,,,,,,,,,,3,68329
昆明勘察设计研究院口腔诊所,102.680214,25.005435000000002,,,,,,,,,,,3,64258
云检培训中心,102.678567,25.006707,,,,,,,,,,,3,10889
中国工商银行ATM,102.67922,25.00663,,,,,,,,,,,3,13999
华夏银行滇池支行,102.67893,25.00723,,,,,,,,,,,3,14047
华夏银行ATM,102.67889,25.00727,,,,,,,,,,,3,14683
长街7号,102.67857,25.00671,,,,,,,,,,,3,19036
丁丁饵丝,102.67913,25.00676,,,,,,,,,,,3,27923
 ,102.6794354,25.00709918,,,,,,,,,,,3,48594
