name,longitude,latitude,phone,address,district,city,area,zipcodetype,datatype,date,creator,source,index
盘龙陈寿安诊所,102.736413,25.048135,,,,,,,,,,,3,23274
旮旯美发沙龙,102.73708,25.04845,,,,,,,,,,,3,35977
7HOURS栖澳,102.73702,25.04834,,,,,,,,,,,3,39833
瓶客,102.73711999999999,25.04851,,,,,,,,,,,3,40933
昆明市盘龙区园林绿化局,102.736482,25.04802,,,,,,,,,,,3,49701
