name,longitude,latitude,phone,address,district,city,area,zipcodetype,datatype,date,creator,source,index
丽江腊排骨,102.75844000000001,24.96484,,,,,,,,,,,3,13962
羊老咪火塘味道,102.75927,24.96546,,,,,,,,,,,3,5543
官渡区世纪城社区卫生服务中心,102.760115,24.966792,,,,,,,,,,,1,3909
福生园网兜鱼庄,102.76011,24.966089999999998,,,,,,,,,,,3,6083
吉缘草墩,102.75992,24.96594,,,,,,,,,,,3,6344
昭通火上飘清真小吃,102.76035999999999,24.96627,,,,,,,,,,,3,6749
四川老坛酸萝卜乌江鱼,102.76025,24.966189999999997,,,,,,,,,,,3,7013
青松农家乐,102.76003,24.96604,,,,,,,,,,,3,7124
内蒙古烤全羊,102.76103,24.96677,,,,,,,,,,,3,8866
七公肚子鸡,102.76076,24.96657,,,,,,,,,,,3,9704
米好味来,102.76017,24.96613,,,,,,,,,,,3,11251
曲靖壮羊馆,102.76048,24.96636,,,,,,,,,,,3,13189
汕头三合海鲜楼,102.76064000000001,24.96649,,,,,,,,,,,3,15067
广东雷州老三元羊狗火锅世纪店,102.75998,24.965989999999998,,,,,,,,,,,3,15598
昭通火上飘清真小吃,102.76035999999999,24.966070000000002,,,,,,,,,,,3,26609
四川老坛酸萝卜乌江鱼,102.76025,24.965989999999998,,,,,,,,,,,3,26873
世纪水汇,102.76137800000001,24.965821,,,,,,,,,,,1,2109
老昆明美食花园酒楼,102.76065,24.9656,,,,,,,,,,,3,15069
内蒙古烤全羊,102.76103,24.96657,,,,,,,,,,,3,28726
七公肚子鸡,102.76076,24.96637,,,,,,,,,,,3,29564
砧板香,102.76115,24.96666,,,,,,,,,,,3,31110
曲靖壮羊馆,102.76048,24.966160000000002,,,,,,,,,,,3,33049
汕头三合海鲜楼,102.76064000000001,24.96629,,,,,,,,,,,3,34927
老昆明美食花园酒楼,102.76065,24.9654,,,,,,,,,,,3,34929
燕山高中医馆,102.76122600000001,24.966696,,,,,,,,,,,3,45840
世纪水汇,102.76137800000001,24.966020999999998,,,,,,,,,,,1,56401
米好味来,102.76017,24.96593,,,,,,,,,,,3,31111
厕所串串,102.75950999999999,24.96564,,,,,,,,,,,3,7136
抚仙湖铜锅石锅鱼老黄店,102.75975,24.96584,,,,,,,,,,,3,7542
四川球溪鲶鱼庄总店,102.75896999999999,24.96523,,,,,,,,,,,3,9560
蓝桂坊野生菌,102.75922,24.965429999999998,,,,,,,,,,,3,9703
尚滋味小龙虾世纪城店,102.75881,24.965120000000002,,,,,,,,,,,3,10849
墨江王三思茅菜馆,102.75916,24.96538,,,,,,,,,,,3,10982
万隆园鲜鱼庄世纪城分店,102.75934000000001,24.96552,,,,,,,,,,,3,10993
重庆老牌坊石磨豆花世纪城店,102.75946,24.9656,,,,,,,,,,,3,11387
宣威老火腿红豆汤猪脚火锅,102.75912,24.96536,,,,,,,,,,,3,11414
镇雄酸汤猪脚,102.75907,24.965320000000002,,,,,,,,,,,3,14346
潮汕龙记海鲜大排档世纪城店,102.75887,24.96516,,,,,,,,,,,3,15068
浴火凤凰休闲会所,102.75963,24.965729999999997,,,,,,,,,,,3,19357
羊老咪火塘味道,102.75927,24.96526,,,,,,,,,,,3,25403
福生园网兜鱼庄,102.76011,24.965889999999998,,,,,,,,,,,3,25943
吉缘草墩,102.75992,24.96574,,,,,,,,,,,3,26204
青松农家乐,102.76003,24.96584,,,,,,,,,,,3,26984
厕所串串,102.75950999999999,24.96544,,,,,,,,,,,3,26996
抚仙湖铜锅石锅鱼老黄店,102.75975,24.96564,,,,,,,,,,,3,27402
四川球溪鲶鱼庄总店,102.75896999999999,24.96503,,,,,,,,,,,3,29420
蓝桂坊野生菌,102.75922,24.96523,,,,,,,,,,,3,29563
尚滋味小龙虾世纪城店,102.75881,24.964920000000003,,,,,,,,,,,3,30709
墨江王三思茅菜馆,102.75916,24.96518,,,,,,,,,,,3,30842
万隆园鲜鱼庄世纪城分店,102.75934000000001,24.965320000000002,,,,,,,,,,,3,30853
重庆老牌坊石磨豆花世纪城店,102.75946,24.9654,,,,,,,,,,,3,31247
宣威老火腿红豆汤猪脚火锅,102.75912,24.96516,,,,,,,,,,,3,31274
镇雄酸汤猪脚,102.75907,24.965120000000002,,,,,,,,,,,3,34206
潮汕龙记海鲜大排档世纪城店,102.75887,24.96496,,,,,,,,,,,3,34928
广东雷州老三元羊狗火锅世纪店,102.75998,24.96579,,,,,,,,,,,3,35458
浴火凤凰休闲会所,102.75963,24.965529999999998,,,,,,,,,,,3,39217
鲁西肥牛官渡店,102.7591,24.963820000000002,,,,,,,,,,,3,9705
妙语轩,102.75912,24.964299999999998,,,,,,,,,,,3,10990
哈尼大山珥季路店,102.75912,24.964299999999998,,,,,,,,,,,3,11037
罗记水城老牌羊肉米线,102.75822,24.9634,,,,,,,,,,,3,7554
一品红火吧,102.75865999999999,24.96267,,,,,,,,,,,3,10642
昭通天麻火腿鸡,102.759,24.96317,,,,,,,,,,,3,11471
蜀一蜀二官渡分店,102.75843,24.96303,,,,,,,,,,,3,11973
天福烧烤店,102.75907,24.96306,,,,,,,,,,,3,13837
鑫旺园,102.7589,24.96331,,,,,,,,,,,3,14249
沙县小吃,102.75903000000001,24.96311,,,,,,,,,,,3,14488
美食饮吧,102.75896,24.96322,,,,,,,,,,,3,15635
陕西风味小吃世纪城分店,102.75764000000001,24.96425,,,,,,,,,,,3,6373
蜀风一号,102.75721,24.96301,,,,,,,,,,,3,5332
银海畅园西区,102.7561757,24.96302444,,,,,,,,,,,2,437
闽南海鲜馆,102.75678,24.96359,,,,,,,,,,,3,5168
夜思豪粤西海鲜,102.75541,24.96258,,,,,,,,,,,3,5602
老北京风味涮羊肉,102.75667,24.96353,,,,,,,,,,,3,6861
姐妹鲜椒肥肠鱼火锅,102.75548,24.96264,,,,,,,,,,,3,7679
广东悦轩海鲜大排档,102.75535,24.962529999999997,,,,,,,,,,,3,7839
世纪豪庭大酒楼,102.7571,24.96294,,,,,,,,,,,3,9155
重庆黔江鸡杂煨锅,102.75569,24.96279,,,,,,,,,,,3,9222
羊大娃酒楼,102.75673,24.96266,,,,,,,,,,,3,9314
七香园建水风味烧烤,102.75646,24.96337,,,,,,,,,,,3,10237
建水坡头带皮小黄牛米线,102.75627,24.96321,,,,,,,,,,,3,11821
十米滇味,102.75684,24.963639999999998,,,,,,,,,,,3,12921
重庆万州烤鱼,102.75662,24.9635,,,,,,,,,,,3,13738
湘村馆,102.75686,24.96274,,,,,,,,,,,3,15271
兰州手拉面刀削面,102.75609,24.9631,,,,,,,,,,,3,15281
王朝国际KTV,102.75678,24.96271,,,,,,,,,,,3,17517
世纪大澡堂,102.75623,24.962220000000002,,,,,,,,,,,3,18014
云南玉启口腔连锁,102.75683599999999,24.963661,,,,,,,,,,,3,22767
闽南海鲜馆,102.75678,24.96339,,,,,,,,,,,3,25028
老北京风味涮羊肉,102.75667,24.96333,,,,,,,,,,,3,26721
姐妹鲜椒肥肠鱼火锅,102.75548,24.96244,,,,,,,,,,,3,27539
抚仙湖石锅鱼,102.75692,24.9635,,,,,,,,,,,3,28195
世纪豪庭大酒楼,102.7571,24.96274,,,,,,,,,,,3,29015
重庆黔江鸡杂煨锅,102.75569,24.96259,,,,,,,,,,,3,29082
羊大娃酒楼,102.75673,24.96246,,,,,,,,,,,3,29174
七香园建水风味烧烤,102.75646,24.96317,,,,,,,,,,,3,30097
建水坡头带皮小黄牛米线,102.75627,24.96301,,,,,,,,,,,3,31681
十米滇味,102.75684,24.96344,,,,,,,,,,,3,32781
重庆万州烤鱼,102.75662,24.9633,,,,,,,,,,,3,33598
湘村馆,102.75686,24.96254,,,,,,,,,,,3,35131
兰州手拉面刀削面,102.75609,24.9629,,,,,,,,,,,3,35141
王朝国际KTV,102.75678,24.96251,,,,,,,,,,,3,37377
云南玉启口腔连锁,102.75683599999999,24.963461,,,,,,,,,,,3,42627
中国工商银行珥季路支行,102.75634000000001,24.963070000000002,,,,,,,,,,,3,53651
银海畅园西区,102.7561757,24.96322444,,,,,,,,,,,2,54729
重庆胖娃大排档,102.75701,24.96378,,,,,,,,,,,3,5601
抚仙湖石锅鱼,102.75692,24.9637,,,,,,,,,,,3,8335
锅门串串香火锅世纪城店,102.75717,24.96388,,,,,,,,,,,3,8784
浙江东海海鲜,102.75709,24.963829999999998,,,,,,,,,,,3,11902
天津灌汤包,102.75779,24.96347,,,,,,,,,,,3,14932
漂亮女孩,102.75816,24.96304,,,,,,,,,,,3,16610
方氏专业推拿按摩,102.7582,24.962979999999998,,,,,,,,,,,3,18895
馨发缘昆明NO．3,102.75754,24.963279999999997,,,,,,,,,,,3,21631
京城水岸男子SPA概念店,102.75761999999999,24.96333,,,,,,,,,,,3,22157
熏满浴足世纪城店,102.7577,24.9634,,,,,,,,,,,3,22204
源心堂足道,102.75741,24.96275,,,,,,,,,,,3,22378
蜀风一号,102.75721,24.96281,,,,,,,,,,,3,25192
重庆胖娃大排档,102.75701,24.96358,,,,,,,,,,,3,25461
锅门串串香火锅世纪城店,102.75717,24.96368,,,,,,,,,,,3,28644
碳烤羊腿昆明旗舰店,102.75725,24.963739999999998,,,,,,,,,,,3,30507
浙江东海海鲜,102.75709,24.96363,,,,,,,,,,,3,31762
天津灌汤包,102.75779,24.96327,,,,,,,,,,,3,34792
昭通小马宏肉串,102.75741,24.96387,,,,,,,,,,,3,34843
漂亮女孩,102.75816,24.96284,,,,,,,,,,,3,36470
馨发缘昆明NO．3,102.75754,24.963079999999998,,,,,,,,,,,3,41491
京城水岸男子SPA概念店,102.75761999999999,24.96313,,,,,,,,,,,3,42017
熏满浴足世纪城店,102.7577,24.9632,,,,,,,,,,,3,42064
源心堂足道,102.75741,24.96255,,,,,,,,,,,3,42238
世纪港湾海鲜火锅,102.75811999999999,24.96461,,,,,,,,,,,3,6374
口口香烤鱼,102.75746,24.9641,,,,,,,,,,,3,7523
留一手烤鱼昆明总店,102.75837,24.96479,,,,,,,,,,,3,8305
钰有老字号,102.75758,24.9642,,,,,,,,,,,3,8734
碳烤羊腿昆明旗舰店,102.75725,24.963939999999997,,,,,,,,,,,3,10647
昭通风味烧烤,102.75796,24.96448,,,,,,,,,,,3,12309
老滇东,102.75805,24.96455,,,,,,,,,,,3,14248
昭通小马宏肉串,102.75741,24.96407,,,,,,,,,,,3,14983
民间瓦缸煨汤店,102.7584,24.96481,,,,,,,,,,,3,15751
夏时根专业修脚屋云南昆明店,102.75766999999999,24.96428,,,,,,,,,,,3,16054
韵涛KTV量贩,102.75831,24.96368,,,,,,,,,,,3,16317
苗子足浴,102.75782,24.964389999999998,,,,,,,,,,,3,17510
手道堂养生馆,102.7577,24.964299999999998,,,,,,,,,,,3,18680
晨庭美业,102.75820999999999,24.964679999999998,,,,,,,,,,,3,19161
魔瘦专业减肥云南总代理店,102.75829,24.96473,,,,,,,,,,,3,19162
耀辉诊所,102.758367,24.964790999999998,,,,,,,,,,,3,22642
陕西风味小吃世纪城分店,102.75764000000001,24.96405,,,,,,,,,,,3,26233
世纪港湾海鲜火锅,102.75811999999999,24.96441,,,,,,,,,,,3,26234
口口香烤鱼,102.75746,24.9639,,,,,,,,,,,3,27383
留一手烤鱼昆明总店,102.75837,24.96459,,,,,,,,,,,3,28165
钰有老字号,102.75758,24.964000000000002,,,,,,,,,,,3,28594
昭通风味烧烤,102.75796,24.96428,,,,,,,,,,,3,32169
丽江腊排骨,102.75844000000001,24.96464,,,,,,,,,,,3,33822
老滇东,102.75805,24.96435,,,,,,,,,,,3,34108
老马砂锅米线,102.75846999999999,24.964660000000002,,,,,,,,,,,3,34201
民间瓦缸煨汤店,102.7584,24.96461,,,,,,,,,,,3,35611
夏时根专业修脚屋云南昆明店,102.75766999999999,24.96408,,,,,,,,,,,3,35914
苗子足浴,102.75782,24.96419,,,,,,,,,,,3,37370
手道堂养生馆,102.7577,24.9641,,,,,,,,,,,3,38540
晨庭美业,102.75820999999999,24.96448,,,,,,,,,,,3,39021
魔瘦专业减肥云南总代理店,102.75829,24.96453,,,,,,,,,,,3,39022
耀辉诊所,102.758367,24.964591,,,,,,,,,,,3,42502
交通银行ATM,102.75836,24.96371,,,,,,,,,,,3,54092
龙抬头形象设计,102.75846999999999,24.962970000000002,,,,,,,,,,,3,16819
绎美宣皙皙美容,102.75846999999999,24.96255,,,,,,,,,,,3,21632
金龙宠物门诊,102.758252,24.963351,,,,,,,,,,,3,22715
罗记水城老牌羊肉米线,102.75822,24.9632,,,,,,,,,,,3,27414
鲁西肥牛官渡店,102.7591,24.963620000000002,,,,,,,,,,,3,29565
昭通天麻火腿鸡,102.759,24.962970000000002,,,,,,,,,,,3,31331
蜀一蜀二官渡分店,102.75843,24.96283,,,,,,,,,,,3,31833
鑫旺园,102.7589,24.96311,,,,,,,,,,,3,34109
沙县小吃,102.75903000000001,24.96291,,,,,,,,,,,3,34348
美食饮吧,102.75896,24.96302,,,,,,,,,,,3,35495
韵涛KTV量贩,102.75831,24.96348,,,,,,,,,,,3,36177
龙抬头形象设计,102.75846999999999,24.962770000000003,,,,,,,,,,,3,36679
帝诗曼美容美发生活馆,102.75886,24.9639,,,,,,,,,,,3,38736
方氏专业推拿按摩,102.7582,24.96278,,,,,,,,,,,3,38755
金龙宠物门诊,102.758252,24.963151,,,,,,,,,,,3,42575
官渡普泽药店,102.758359,24.962564999999998,,,,,,,,,,,3,45445
瑞鑫商务酒店,102.75813000000001,24.96335,,,,,,,,,,,3,46088
美味鲜正宗富源酸菜土猪脚火锅,102.7601,24.96288,,,,,,,,,,,3,5314
重庆老地方串串香火锅,102.75981999999999,24.96242,,,,,,,,,,,3,5545
尚百佳烧烤鸡脚王,102.75919,24.96286,,,,,,,,,,,3,8722
会泽金莲烧烤,102.76073000000001,24.96331,,,,,,,,,,,3,11975
有滋有味农家园,102.75936,24.96239,,,,,,,,,,,3,13904
极度网络晨希店,102.75922,24.963279999999997,,,,,,,,,,,3,16580
云南钜野烽火台科技公司,102.76079,24.96335,,,,,,,,,,,3,16611
靓点美发,102.75992,24.96277,,,,,,,,,,,3,19252
头上艺人形象店,102.75994,24.962799999999998,,,,,,,,,,,3,20366
先锋中学,102.760092,24.964052,,,,,,,,,,,1,1679
吉凤风味小吃,102.759902,24.964285,,,,,,,,,,,1,3594
重庆龙门鱼府养生馆,102.75912,24.96412,,,,,,,,,,,3,5544
柳记美食花园,102.75932,24.9645,,,,,,,,,,,3,10236
圣都娱乐,102.75966,24.96477,,,,,,,,,,,3,18170
香水湾洗浴广场,102.75964,24.963620000000002,,,,,,,,,,,3,20727
重庆龙门鱼府养生馆,102.75912,24.96392,,,,,,,,,,,3,25404
柳记美食花园,102.75932,24.9643,,,,,,,,,,,3,30096
妙语轩,102.75912,24.9641,,,,,,,,,,,3,30850
哈尼大山珥季路店,102.75912,24.9641,,,,,,,,,,,3,30897
圣都娱乐,102.75966,24.964570000000002,,,,,,,,,,,3,38030
香水湾洗浴广场,102.75964,24.963420000000003,,,,,,,,,,,3,40587
先锋中学,102.760092,24.964252,,,,,,,,,,,1,55971
玛丽艳美容养生馆,102.76021999999999,24.96301,,,,,,,,,,,3,21772
美味鲜正宗富源酸菜土猪脚火锅,102.7601,24.96268,,,,,,,,,,,3,25174
重庆老地方串串香火锅,102.75981999999999,24.962220000000002,,,,,,,,,,,3,25405
尚百佳烧烤鸡脚王,102.75919,24.96266,,,,,,,,,,,3,28582
会泽金莲烧烤,102.76073000000001,24.96311,,,,,,,,,,,3,31835
极度网络晨希店,102.75922,24.963079999999998,,,,,,,,,,,3,36440
云南钜野烽火台科技公司,102.76079,24.96315,,,,,,,,,,,3,36471
靓点美发,102.75992,24.96257,,,,,,,,,,,3,39112
头上艺人形象店,102.75994,24.9626,,,,,,,,,,,3,40226
玛丽艳美容养生馆,102.76021999999999,24.96281,,,,,,,,,,,3,41632
华谊宾馆,102.75986,24.96254,,,,,,,,,,,3,46352
东云客房,102.75976999999999,24.96219,,,,,,,,,,,3,47291
蓝魅主题酒店,102.75978,24.96286,,,,,,,,,,,3,47572
水云间客栈,102.75963,24.96239,,,,,,,,,,,3,47647
农村信用社ATM,102.75943000000001,24.963160000000002,,,,,,,,,,,3,52940
帝诗曼美容美发生活馆,102.75886,24.9641,,,,,,,,,,,3,18876
老马砂锅米线,102.75846999999999,24.96486,,,,,,,,,,,3,14341
肯琦儿国际幼稚园第四幼儿园,102.758151,24.965557999999998,,,,,,,,,,,3,51131
