name,longitude,latitude,phone,address,district,city,area,zipcodetype,datatype,date,creator,source,index
昆明职工之家酒店,102.71804399999999,25.034487,,,,,,,,,,,1,2792
东寺塔,102.718383,25.034999,,,,,,,,,,,1,4096
茶花苑酒楼,102.718083,25.034902,,,,,,,,,,,1,4397
芮雨聆夕(书林街),102.71765500000001,25.033634,,,,,,,,,,,1,2237
上海浦东发展银行ATM,102.71852,25.033279999999998,,,,,,,,,,,3,54079
芮雨聆夕(书林街),102.71765500000001,25.033834,,,,,,,,,,,1,56529
昆明职工之家酒店,102.71804399999999,25.034686999999998,,,,,,,,,,,1,57084
