name,longitude,latitude,phone,address,district,city,area,zipcodetype,datatype,date,creator,source,index
汤健沐浴室,102.70326,25.02945,,,,,,,,,,,3,20630
云桥园正宗蒙自过桥米线安康路分店,102.70363,25.02844,,,,,,,,,,,3,5709
昆明市第三人民医院严家地门诊,102.702235,25.028561,,,,,,,,,,,1,3048
云南省环境科学研究院,102.70225699999999,25.029763,,,,,,,,,,,1,998
贵州王记全羊火锅,102.70229,25.029420000000002,,,,,,,,,,,3,7267
快乐健身院,102.70225,25.029899999999998,,,,,,,,,,,3,18367
贵州王记全羊火锅,102.70229,25.029220000000002,,,,,,,,,,,3,27127
快乐健身院,102.70225,25.0297,,,,,,,,,,,3,38227
昆明建设管理中心,102.701849,25.030063000000002,,,,,,,,,,,3,48887
云南省建设工程交易中心,102.70225400000001,25.029697,,,,,,,,,,,3,49293
云南省环境科学研究院,102.70225699999999,25.029963,,,,,,,,,,,1,55290
丽江罗氏鱼庄NO．2,102.70304,25.02866,,,,,,,,,,,3,7268
添香食坊,102.70246999999999,25.02862,,,,,,,,,,,3,8928
彭氏草墩彭家菜,102.70274,25.02864,,,,,,,,,,,3,9915
融城优郡,102.70115,25.02792,,,,,,,,,,,2,310
大理饭店(气象路),102.700214,25.027749,,,,,,,,,,,1,4256
好吃坊,102.70170999999999,25.028589999999998,,,,,,,,,,,3,10550
美神发型设计,102.70049,25.02856,,,,,,,,,,,3,19433
一心堂昆明安康路连锁店,102.701388,25.0286,,,,,,,,,,,3,22535
福华园,102.7002,25.02808,,,,,,,,,,,3,29946
好吃坊,102.70170999999999,25.028389999999998,,,,,,,,,,,3,30410
美神发型设计,102.70049,25.02836,,,,,,,,,,,3,39293
一心堂昆明安康路连锁店,102.701388,25.0284,,,,,,,,,,,3,42395
云岭宾馆,102.70049,25.02809,,,,,,,,,,,3,47109
融城优郡,102.70115,25.02812,,,,,,,,,,,2,54602
一家人,102.70293000000001,25.02864,,,,,,,,,,,3,13376
昆明市中老年气排球俱乐部,102.70304,25.02838,,,,,,,,,,,3,20193
健之佳健康药房NO．247,102.702474,25.028639000000002,,,,,,,,,,,3,22842
丽江罗氏鱼庄NO．2,102.70304,25.02846,,,,,,,,,,,3,27128
添香食坊,102.70246999999999,25.02842,,,,,,,,,,,3,28788
彭氏草墩彭家菜,102.70274,25.02844,,,,,,,,,,,3,29775
一家人,102.70293000000001,25.02844,,,,,,,,,,,3,33236
健之佳健康药房NO．247,102.702474,25.028439000000002,,,,,,,,,,,3,42702
工人新村小学,102.70241700000001,25.028164,,,,,,,,,,,3,51500
昆明市第三人民医院严家地门诊,102.702235,25.028761,,,,,,,,,,,1,57340
冯记文山土鸡米线安康店,102.70376,25.02846,,,,,,,,,,,3,14043
澳门豆捞昆明NO．3,102.70385999999999,25.0289,,,,,,,,,,,3,14687
汤山温泉会所,102.70354,25.0292,,,,,,,,,,,3,16341
西南温泉游泳馆,102.70354,25.0292,,,,,,,,,,,3,16741
西南水洲,102.70354,25.0292,,,,,,,,,,,3,16964
昆明大西南文化娱乐中心,102.70354,25.0292,,,,,,,,,,,3,18368
云南结石病医院,102.703934,25.028313,,,,,,,,,,,3,23480
云桥园正宗蒙自过桥米线安康路分店,102.70363,25.02824,,,,,,,,,,,3,25569
冯记文山土鸡米线安康店,102.70376,25.02826,,,,,,,,,,,3,33903
澳门豆捞昆明NO．3,102.70385999999999,25.0287,,,,,,,,,,,3,34547
汤山温泉会所,102.70354,25.029,,,,,,,,,,,3,36201
西南温泉游泳馆,102.70354,25.029,,,,,,,,,,,3,36601
西南水洲,102.70354,25.029,,,,,,,,,,,3,36824
昆明大西南文化娱乐中心,102.70354,25.029,,,,,,,,,,,3,38228
汤健沐浴室,102.70326,25.02925,,,,,,,,,,,3,40490
昆明桂花大酒店,102.704468,25.027358,,,,,,,,,,,1,3179
可乐公寓,102.704418,25.027424,,,,,,,,,,,1,3303
新华书店(滇池路),102.703682,25.026314000000003,,,,,,,,,,,1,1586
严家地新村,102.7032676,25.02733003,,,,,,,,,,,2,426
融城优郡,102.703577,25.026707000000002,,,,,,,,,,,1,2247
老派理发店,102.70295,25.026729999999997,,,,,,,,,,,3,18548
姐妹美发,102.7031,25.026729999999997,,,,,,,,,,,3,20286
西山区杨艳珍中医诊所,102.70286899999999,25.026728,,,,,,,,,,,3,24500
老派理发店,102.70295,25.026529999999998,,,,,,,,,,,3,38408
昆明市中老年气排球俱乐部,102.70304,25.02818,,,,,,,,,,,3,40053
姐妹美发,102.7031,25.026529999999998,,,,,,,,,,,3,40146
西山区杨艳珍中医诊所,102.70286899999999,25.026528,,,,,,,,,,,3,44360
昆房置换大厦,102.70304,25.02818,,,,,,,,,,,3,48325
昆明市五华区检察院,102.703427,25.028205,,,,,,,,,,,3,49808
中信银行安康路支行,102.70316,25.0282,,,,,,,,,,,3,53984
严家地新村,102.7032676,25.02753003,,,,,,,,,,,2,54718
新华书店(滇池路),102.703682,25.026514000000002,,,,,,,,,,,1,55878
融城优郡,102.703577,25.026907,,,,,,,,,,,1,56539
彩艺发沙龙,102.70425999999999,25.02674,,,,,,,,,,,3,16969
御美堂美容养生名媛会所,102.70406,25.02677,,,,,,,,,,,3,18547
华真养发,102.70439,25.02675,,,,,,,,,,,3,21408
西山区郑勤口腔诊所,102.704399,25.026754,,,,,,,,,,,3,22562
土桥社区卫生中心,102.704189,25.026525,,,,,,,,,,,3,23992
彩艺发沙龙,102.70425999999999,25.02654,,,,,,,,,,,3,36829
御美堂美容养生名媛会所,102.70406,25.02657,,,,,,,,,,,3,38407
予众不同酒吧,102.70451,25.02657,,,,,,,,,,,3,38621
华真养发,102.70439,25.02655,,,,,,,,,,,3,41268
西山区郑勤口腔诊所,102.704399,25.026554,,,,,,,,,,,3,42422
土桥社区卫生中心,102.704189,25.026325,,,,,,,,,,,3,43852
云南省轻工业科学研究院,102.703412,25.026286,,,,,,,,,,,3,51383
云南结石病医院,102.703934,25.028113,,,,,,,,,,,3,43340
丽声助听器,102.704631,25.027444,,,,,,,,,,,3,45886
锦江之星昆明西昌路店,102.70438,25.02766,,,,,,,,,,,3,47513
来家温泉酒店,102.70416,25.028370000000002,,,,,,,,,,,3,47204
云南西南仪器厂昆明招待所,102.70324000000001,25.02848,,,,,,,,,,,3,47246
中国建设银行ATM,102.70401,25.028570000000002,,,,,,,,,,,3,53711
