name,longitude,latitude,phone,address,district,city,area,zipcodetype,datatype,date,creator,source,index
君来商务酒店,102.84054,24.922829999999998,,,,,,,,,,,3,47575
马记清真美食城,102.83921,24.922639999999998,,,,,,,,,,,3,6609
正宗富源酸菜猪脚火锅NO．9,102.83921,24.92241,,,,,,,,,,,3,12879
马记清真美食城,102.83921,24.922439999999998,,,,,,,,,,,3,26469
正宗富源酸菜猪脚火锅NO．9,102.83921,24.92221,,,,,,,,,,,3,32739
呈贡县王家营车站派出所,102.838885,24.922446,,,,,,,,,,,3,49774
云南省农村信用社ATM,102.84002,24.9226,,,,,,,,,,,3,53780
