name,longitude,latitude,phone,address,district,city,area,zipcodetype,datatype,date,creator,source,index
川味德缘饭店,102.9731,25.123279999999998,,,,,,,,,,,3,12298
子源饭店,102.97277,25.12269,,,,,,,,,,,3,15188
友谊网吧,102.97339000000001,25.12305,,,,,,,,,,,3,16522
川味德缘饭店,102.9731,25.123079999999998,,,,,,,,,,,3,32158
子源饭店,102.97277,25.12249,,,,,,,,,,,3,35048
友谊网吧,102.97339000000001,25.12285,,,,,,,,,,,3,36382
官渡殷美兮诊所,102.973394,25.122851,,,,,,,,,,,3,46043
官渡农村合作银行长水分理处,102.97355,25.12349,,,,,,,,,,,3,52855
