name,longitude,latitude,phone,address,district,city,area,zipcodetype,datatype,date,creator,source,index
农村信用社ATM,102.80861999999999,24.77373,,,,,,,,,,,3,53993
避风塘,102.80785,24.77447,,,,,,,,,,,3,8952
七杯茶财经大学分店,102.80775,24.77433,,,,,,,,,,,3,12647
他她造型,102.80775,24.77422,,,,,,,,,,,3,18094
避风塘,102.80785,24.77427,,,,,,,,,,,3,28812
七杯茶财经大学分店,102.80775,24.77413,,,,,,,,,,,3,32507
他她造型,102.80775,24.77402,,,,,,,,,,,3,37954
富滇银行ATM,102.80809,24.77456,,,,,,,,,,,3,53761
