name,longitude,latitude,phone,address,district,city,area,zipcodetype,datatype,date,creator,source,index
GUCCI,102.721568,25.056744000000002,,,,,,,,,,,1,4604
圆通山,102.721248,25.057642,,,,,,,,,,,1,1244
新圆通古玩文化市场,102.721488,25.056873,,,,,,,,,,,1,1543
滨江大厦,102.721378,25.058423,,,,,,,,,,,1,4425
昆明火车北站,102.72136,25.057013,,,,,,,,,,,3,52798
圆通山,102.721248,25.057842,,,,,,,,,,,1,55536
新圆通古玩文化市场,102.721488,25.057073,,,,,,,,,,,1,55835
