name,longitude,latitude,phone,address,district,city,area,zipcodetype,datatype,date,creator,source,index
中国邮政储蓄银行ATM,102.73996,25.145039999999998,,,,,,,,,,,3,52895
雅味阁餐厅,102.740836,25.145725,,,,,,,,,,,1,1458
云南白药大药房茨坝连锁店,102.740146,25.145332,,,,,,,,,,,3,24310
云南白药大药房茨坝连锁店,102.740146,25.145132,,,,,,,,,,,3,44170
精诚文化艺术培训学校,102.740166,25.145522,,,,,,,,,,,3,51501
盘龙区爱扬茨馨幼儿园,102.740166,25.145522,,,,,,,,,,,3,52204
雅味阁餐厅,102.740836,25.145925,,,,,,,,,,,1,55750
