name,longitude,latitude,phone,address,district,city,area,zipcodetype,datatype,date,creator,source,index
宜良县卫生局,103.143746,24.918738,,,,,,,,,,,3,48682
范志文诊所,103.14349200000001,24.920041,,,,,,,,,,,3,43870
合协门诊,103.14407,24.920917,,,,,,,,,,,3,23533
范志文诊所,103.14349200000001,24.920241,,,,,,,,,,,3,24010
合协门诊,103.14407,24.920717,,,,,,,,,,,3,43393
锦琰医馆,103.14406,24.919439,,,,,,,,,,,3,44986
福康段庆玲诊所,103.14363399999999,24.919255,,,,,,,,,,,3,45103
宜良县地税局二分局,103.143996,24.919826,,,,,,,,,,,3,48608
