name,longitude,latitude,phone,address,district,city,area,zipcodetype,datatype,date,creator,source,index
晋宁县公安局交警大队车管所便民服务站,102.59495600000001,24.671843,,,,,,,,,,,3,49967
晋宁昆阳鸿兴药店,102.594895,24.672860999999997,,,,,,,,,,,3,23318
晋宁昆阳鸿兴药店,102.594895,24.672660999999998,,,,,,,,,,,3,43178
一心堂昆阳大街连锁NO．3,102.594886,24.672298,,,,,,,,,,,3,44587
益群药店,102.59518100000001,24.672723,,,,,,,,,,,3,44739
嘉誉驾校,102.595258,24.671928,,,,,,,,,,,3,52450
