name,longitude,latitude,phone,address,district,city,area,zipcodetype,datatype,date,creator,source,index
旅行者佳园酒店连锁人民东路店,102.72384,25.04301,,,,,,,,,,,3,46080
梳梳阁,102.72281,25.04263,,,,,,,,,,,3,20486
阿萝伊泰式小厨,102.72335,25.04295,,,,,,,,,,,3,31283
品润私房小锅米线,102.72338,25.04296,,,,,,,,,,,3,32148
志远大厦,102.723261,25.042839999999998,,,,,,,,,,,1,55080
