name,longitude,latitude,phone,address,district,city,area,zipcodetype,datatype,date,creator,source,index
云水遥温泉会所,102.75761999999999,24.96204,,,,,,,,,,,3,17516
福建沙县营养小吃,102.75717,24.96118,,,,,,,,,,,3,5331
粗茶淡饭,102.756,24.96118,,,,,,,,,,,3,5160
宣威烧烤,102.75657,24.960539999999998,,,,,,,,,,,3,6654
丽傣餐厅,102.7556,24.96119,,,,,,,,,,,3,7840
万家海鲜楼,102.75616,24.96138,,,,,,,,,,,3,8071
矮哥厨房,102.75579,24.96097,,,,,,,,,,,3,8308
锦元商务酒店－餐厅,102.75672,24.961199999999998,,,,,,,,,,,3,9498
保山永昌火瓢牛肉,102.7563,24.96127,,,,,,,,,,,3,9934
金诺郎韩式养生烤肉,102.75657,24.96166,,,,,,,,,,,3,10639
神迹足道养生会馆,102.75656,24.96166,,,,,,,,,,,3,17792
天罗地网网城,102.75679000000001,24.96146,,,,,,,,,,,3,17989
皇马国际娱乐,102.75568,24.96183,,,,,,,,,,,3,18013
锦源休闲会所,102.75591,24.96167,,,,,,,,,,,3,18303
棕榈滩水疗会所,102.75663,24.96164,,,,,,,,,,,3,18878
世纪银都美食娱乐休闲广场,102.75581,24.96192,,,,,,,,,,,3,19678
伯爵金座,102.75657,24.96165,,,,,,,,,,,3,20545
魅力金座娱乐会所,102.75516,24.96124,,,,,,,,,,,3,22183
汇宝网吧,102.75628,24.96047,,,,,,,,,,,3,22360
粗茶淡饭,102.756,24.96098,,,,,,,,,,,3,25020
丽傣餐厅,102.7556,24.96099,,,,,,,,,,,3,27700
万家海鲜楼,102.75616,24.96118,,,,,,,,,,,3,27931
矮哥厨房,102.75579,24.96077,,,,,,,,,,,3,28168
锦元商务酒店－餐厅,102.75672,24.961,,,,,,,,,,,3,29358
保山永昌火瓢牛肉,102.7563,24.96107,,,,,,,,,,,3,29794
金诺郎韩式养生烤肉,102.75657,24.96146,,,,,,,,,,,3,30499
神迹足道养生会馆,102.75656,24.96146,,,,,,,,,,,3,37652
天罗地网网城,102.75679000000001,24.96126,,,,,,,,,,,3,37849
皇马国际娱乐,102.75568,24.96163,,,,,,,,,,,3,37873
世纪大澡堂,102.75623,24.962020000000003,,,,,,,,,,,3,37874
锦源休闲会所,102.75591,24.961470000000002,,,,,,,,,,,3,38163
棕榈滩水疗会所,102.75663,24.96144,,,,,,,,,,,3,38738
世纪银都美食娱乐休闲广场,102.75581,24.96172,,,,,,,,,,,3,39538
伯爵金座,102.75657,24.96145,,,,,,,,,,,3,40405
魅力金座娱乐会所,102.75516,24.96104,,,,,,,,,,,3,42043
御晟酒店,102.75574,24.96033,,,,,,,,,,,3,46713
麦肯道快捷酒店,102.75591,24.961470000000002,,,,,,,,,,,3,46946
福波宾馆NO．1,102.75662,24.96077,,,,,,,,,,,3,47152
昆明官渡农村合作银行ATM,102.75576,24.96165,,,,,,,,,,,3,53806
盛鑫饭店,102.75726999999999,24.96125,,,,,,,,,,,3,6676
亿饮,102.75768000000001,24.96153,,,,,,,,,,,3,6677
陈氏香鹅掌昆明店,102.75699,24.96196,,,,,,,,,,,3,7848
重庆一品串串香,102.75738,24.96112,,,,,,,,,,,3,7963
云兴源小吃,102.75726999999999,24.96104,,,,,,,,,,,3,8309
随忆烤鱼,102.75735,24.96109,,,,,,,,,,,3,8526
世纪·花园火锅,102.75708,24.96116,,,,,,,,,,,3,10167
味在其中农家菜,102.75721999999999,24.96122,,,,,,,,,,,3,13736
民间瓦罐煨汤,102.75707,24.96141,,,,,,,,,,,3,14181
剪尚秀美发工作室,102.75703,24.960579999999997,,,,,,,,,,,3,17148
双泉沐浴,102.75754,24.961199999999998,,,,,,,,,,,3,17241
鸿华美容美体养生馆NO．19024,102.75763,24.96174,,,,,,,,,,,3,18894
独品造型,102.75715,24.9615,,,,,,,,,,,3,19199
福建沙县营养小吃,102.75717,24.96098,,,,,,,,,,,3,25191
盛鑫饭店,102.75726999999999,24.96105,,,,,,,,,,,3,26536
亿饮,102.75768000000001,24.96133,,,,,,,,,,,3,26537
陈氏香鹅掌昆明店,102.75699,24.96176,,,,,,,,,,,3,27708
重庆一品串串香,102.75738,24.96092,,,,,,,,,,,3,27823
云兴源小吃,102.75726999999999,24.96084,,,,,,,,,,,3,28169
随忆烤鱼,102.75735,24.96089,,,,,,,,,,,3,28386
世纪·花园火锅,102.75708,24.96096,,,,,,,,,,,3,30027
味在其中农家菜,102.75721999999999,24.96102,,,,,,,,,,,3,33596
民间瓦罐煨汤,102.75707,24.96121,,,,,,,,,,,3,34041
美味缘火锅店,102.75761999999999,24.95981,,,,,,,,,,,3,5154
正宗昭通酸菜猪脚火锅,102.75764000000001,24.959039999999998,,,,,,,,,,,3,8310
云秀书院,102.75624300000001,24.959512,,,,,,,,,,,1,857
的士之家自助快餐,102.75673,24.959979999999998,,,,,,,,,,,3,11422
宣威烧烤,102.75657,24.96034,,,,,,,,,,,3,26514
的士之家自助快餐,102.75673,24.95978,,,,,,,,,,,3,31282
美妆阁造型工作室,102.75683000000001,24.96007,,,,,,,,,,,3,35939
顶尚美NO．2,102.7568,24.96011,,,,,,,,,,,3,36502
汇宝网吧,102.75628,24.96027,,,,,,,,,,,3,42220
和合客栈,102.75689,24.96,,,,,,,,,,,3,46191
吉亨宾馆,102.75666,24.95985,,,,,,,,,,,3,47277
云秀书院,102.75624300000001,24.959712,,,,,,,,,,,1,55149
美妆阁造型工作室,102.75683000000001,24.96027,,,,,,,,,,,3,16079
时尚顶尖烫染沙龙,102.75752,24.95994,,,,,,,,,,,3,16577
顶尚美NO．2,102.7568,24.96031,,,,,,,,,,,3,16642
乐众棋牌室,102.75796,24.96042,,,,,,,,,,,3,19572
花形美,102.75756,24.95988,,,,,,,,,,,3,21833
美味缘火锅店,102.75761999999999,24.95961,,,,,,,,,,,3,25014
时尚顶尖烫染沙龙,102.75752,24.95974,,,,,,,,,,,3,36437
剪尚秀美发工作室,102.75703,24.960379999999997,,,,,,,,,,,3,37008
乐众棋牌室,102.75796,24.96022,,,,,,,,,,,3,39432
花形美,102.75756,24.95968,,,,,,,,,,,3,41693
王顺英诊所,102.75789499999999,24.958951000000003,,,,,,,,,,,3,44848
君宜居客房,102.75745,24.96019,,,,,,,,,,,3,46218
龙泉招待所,102.75731,24.96036,,,,,,,,,,,3,46444
瑞泰宾馆,102.75789,24.96017,,,,,,,,,,,3,46446
福桥旅社,102.75784,24.959020000000002,,,,,,,,,,,3,46693
逸家悦宾馆,102.7575,24.95976,,,,,,,,,,,3,46904
航源客房,102.75699,24.96044,,,,,,,,,,,3,47230
华光庙,102.757409,24.959094,,,,,,,,,,,3,47783
凌云阁,102.7575,24.959308,,,,,,,,,,,3,47885
双泉沐浴,102.75754,24.961,,,,,,,,,,,3,37101
云水遥温泉会所,102.75761999999999,24.96184,,,,,,,,,,,3,37376
鸿华美容美体养生馆NO．19024,102.75763,24.96154,,,,,,,,,,,3,38754
独品造型,102.75715,24.9613,,,,,,,,,,,3,39059
云庭酒店,102.75769,24.96134,,,,,,,,,,,3,46343
