name,longitude,latitude,source,index
COCO蜜城,102.721183,25.00030785,2,1
H公寓,102.71592,25.014668,2,2
SOHO俊园（星雅俊园）,102.728827,25.06633458,2,3
U族部落,102.6811829,25.0849762,2,4
爱地花园,102.721914,25.00017596,2,5
安康园,102.7291118,25.10535916,2,6
奥宸中心,102.69649,24.989807,2,7
白龙花苑,102.7510979,25.06978512,2,8
白龙潭俊园淏园,102.8616694,24.89394861,2,9
白龙新区,102.7481202,25.06748633,2,11
白马小区,102.6825562,25.04115073,2,12
白沙润园,102.7844161,25.05433899,2,13
百大国际花园,102.6685725,25.07259072,2,14
百大国际派,102.654576,25.084724,2,15
版筑青果,102.65449,25.056805,2,16
半岛华府,102.70208,24.949709,2,17
邦盛南城坊商铺,102.7360725,24.98936395,2,18
保利大家,102.67964,25.079868,2,19
保利堂悦,102.729606,24.978289,2,20
保利玺樾,102.748274,25.073428,2,22
北仓园丁小区,102.7466004,25.10793646,2,23
北辰小区杜鹃苑,102.7461362,25.09106992,2,24
北辰小区樱花苑,102.7405626,25.08807963,2,25
北大资源博泰城,102.695458,25.047957,2,26
北大资源颐和1898,102.720219,24.93672,2,27
彼岸小区二期,102.8288192,25.03131098,2,29
碧桂园KCC云南映象,102.756433,25.093485,2,30
碧桂园半山龙庭,102.725214,25.105754,2,31
碧桂园北城映象,102.749765,25.098232,2,32
碧桂园都荟,102.745536,25.12686,2,33
碧桂园凤凰湾,102.781372,25.053503,2,34
碧桂园璟台,102.775501,25.046181,2,35
碧桂园昆明中心,102.726023,25.040186,2,36
碧桂园玺台,102.667129,25.096463,2,37
碧桂园御龙半山 ,102.726481,25.12295,2,38
碧桂园紫台,102.686755,25.006196,2,39
碧鸡名城,102.67808,25.03919,2,40
碧水蓝天,102.7329521,25.00594986,2,41
滨江俊园塞纳组团,102.7362956,25.09781081,2,42
滨江俊园一期,102.7234611,25.07000092,2,43
博客寓（爱情公寓）,102.7303128,25.08224935,2,44
博欣采莲湾,102.666751,24.987705,2,45
彩信园,102.7316232,25.10430076,2,46
茶马花街,102.619731,24.983795,2,47
晨光大道（紫云花园）,102.7548914,25.08139901,2,48
呈贡老城小区,102.8488464,24.84241867,2,49
呈贡吾悦广场,102.8093071,24.90634567,2,51
城市山,102.638564,25.045435,2,53
城市山（马街上村花果山桃花源居）,102.6311472,25.01813669,2,54
出版社宿舍,102.7183304,25.02121544,2,55
创客电商产业园区,102.840038,24.94576,2,56
创意英国,102.6905435,25.05684101,2,58
春城慧谷B区,102.6550133,25.08707701,2,59
春城佳墅,102.7585043,24.96942173,2,60
春城首府,102.652734,24.963429,2,61
春晖公安大院,102.7140732,25.03469086,2,62
春漫时光,102.879981,24.961003,2,63
春苑小区,102.6765559,25.05221869,2,65
春之城,102.7412712,25.11372338,2,66
翠明园,102.7080894,25.06036649,2,67
翠逸园,102.8402786,24.95362473,2,68
大成名园,102.7385319,25.10253529,2,70
大成蔚蓝时代,102.746719,25.12608389,2,71
大东新村,102.7319031,25.04776955,2,72
大都摩天购物中心,102.768371,24.969197,2,73
大观首府,102.688534,25.038962,2,74
大诺方舟天地,102.832156,24.945922,2,75
大商汇,102.7361677,24.98048234,2,77
德润朗悦湾,102.750149,25.124488,2,78
第七街区,102.866725,24.865003,2,79
第三城,102.8021271,24.96911974,2,81
滇池高尔夫别墅,102.6914092,24.99338295,2,83
滇池国际会展中心·山海湾,102.71435,24.948187,2,84
滇池俊府,102.75355,24.935846,2,85
滇池康城一组团,102.6674837,24.99082694,2,87
滇池岭秀一期（银水湾）,102.7255317,24.98575184,2,88
滇池名门,102.698471,24.986658,2,89
滇池明珠广场,102.8355,24.87504,2,90
滇池时代,102.684884,25.011818,2,92
滇池卫城蓝调公元,102.6898402,24.98191767,2,93
滇池源居别墅,102.6994279,24.99791164,2,94
鼎晟国际,102.725348,25.019164,2,95
鼎易天城,102.6668661,25.07639985,2,97
东方丽苑,102.7687073,25.08530045,2,98
东华小区,102.7386614,25.0508718,2,99
东陆城,102.6901642,25.03657675,2,100
东盟森林,102.80869,24.912472,2,101
东骧神骏,102.764191,25.037543,2,103
东骧神骏二期（慢哉）,102.7602419,25.04090564,2,104
东骧神骏一期,102.7492047,25.04245581,2,105
东信中心城,102.845021,24.954803,2,106
东旭骏城,102.78621,25.033533,2,108
东旭御山湖,102.858304,24.971948,2,109
董家湾小区,102.7415533,25.04197239,2,111
都市春天,102.6796971,25.0743495,2,112
泛亚城邦,102.864407,24.851208,2,113
泛亚港鑫国际汽车城,102.617916,24.992985,2,115
枫林盛景东区,0.0,0.0,2,116
凤凰国际凤凰湾,102.724045,24.985233,2,117
凤凰御景,102.70237,25.01152,2,119
福康花园南区,102.6961084,25.02315533,2,120
高教小区,102.7327013,25.09636868,2,121
高铁时代广场,102.856983,24.867164,2,122
高新·水岸晴沙,102.8119118,24.79189501,2,124
高新水岸晴沙,102.795754,24.778062,2,126
高新文翠园,102.6739384,25.0650157,2,128
亘苑小区,102.6327667,25.01168823,2,129
公园1903,102.68379,24.989382,2,130
共信时代广场,102.708909,25.021773,2,131
固地尚诚商务中心,102.668582,25.091613,2,132
官房都铎城邦,102.753412,24.943358,2,133
光辉城市,102.7155541,24.98747097,2,135
广电苑,102.807527,24.807375,2,136
广电苑和园,102.817324,24.808098,2,138
广发花园,102.698438,25.03037035,2,140
广福城雅福园,102.7439489,25.01014102,2,141
广瑞中心,102.73817,25.071332,2,142
广源小区一组团,102.7521987,24.96605427,2,143
贵研铂苑,102.7066888,25.09341889,2,144
桂华新园,102.743449,25.04166972,2,145
桂华园,102.6992957,25.05177962,2,146
国茶港,102.66972,25.092892,2,147
国福现代城,102.744608,25.107466,2,148
果林湖畔,102.852673,24.964455,2,149
海东俊园,102.745292,24.933033,2,151
海埂悦府,102.696532,24.983662,2,152
海公馆,102.6942336,24.94178477,2,153
海伦堡中央广场,102.684935,25.047225,2,154
海伦国际,102.7499585,24.96968409,2,155
海伦先生,102.689901,25.06883,2,156
海伦中心,102.672674,25.073291,2,157
海源·高新天地,102.66425,25.079126,2,158
海韵枫丹,102.6659483,24.98944566,2,159
瀚林澜山,102.771935,25.049131,2,160
行政中心新都昌商业广场,102.832871,24.86983,2,161
航空小区,102.7275746,24.99643236,2,163
航空艺术港,102.918608,24.944281,2,164
豪门金座,102.72876,24.985989,2,166
和谐世纪（和谐家园）,102.7397664,25.10926682,2,168
河畔俊园,102.75029,24.948589,2,169
黑林铺省建五公司宿舍,102.6551895,25.06306076,2,170
恒安新邻居,102.704255,25.07055801,2,171
恒大翡翠华庭,102.763221,25.11423,2,172
恒大玖珑湾,102.724929,24.949686,2,173
恒大名都,102.6658336,25.08416188,2,175
恒大云报华府,102.699154,25.005319,2,176
恒信花园,102.7008157,25.02941043,2,177
红星国际广场,102.6887885,25.00192795,2,178
红星国际晶品,102.6874029,25.00229248,2,179
红星国际紫郡,102.6921161,25.00021397,2,181
红星天铂,102.7453,24.973417,2,182
虹桥花园,102.7384948,25.00931223,2,183
候谷花园,102.7401972,25.06313857,2,184
湖畔之梦,115.4847845,38.82187691,2,185
花花世界,102.795659,24.908233,2,186
花香四季,102.6829019,25.08132327,2,188
华都,102.7167875,24.9807032,2,189
华飞·名盛世界,102.843834,24.902672,2,190
华飞名盛世界,102.841966,24.909115,2,192
华龙人家,102.7377359,25.10383575,2,194
华润悦府,102.7459728,25.03459815,2,195
华润置地·悦府,102.74082,25.03543,2,196
华润中央公园,102.77873,25.132772,2,198
华泰花园,102.7437377,25.01747522,2,199
华夏天璟湾,102.661145,24.992916,2,200
华夏曦岸,102.6776968,25.00963188,2,201
华夏御府,102.67166,24.997112,2,202
华夏园,102.7507074,25.11463641,2,203
华信名旺角,102.696194,25.002,2,204
华信悦峰,102.65806,25.067062,2,205
黄金海岸别墅,102.664047,24.97931785,2,206
汇都国际一期,102.7326891,25.04117048,2,207
汇和紫薇园,102.759792,25.042373,2,208
汇荣时代广场,102.736595,25.004932,2,210
惠景园,102.8095889,24.89279323,2,212
加州枫景,102.6771446,25.01447061,2,214
佳湖花园,102.7185787,25.00516658,2,215
佳兆业壹号公馆,102.689621,24.9957,2,216
假日城市,102.6630451,25.06054284,2,217
假日湾,102.7296519,24.98828016,2,218
建工新城,102.838315,24.954535,2,219
建设路文明新村,102.7078934,25.07273865,2,221
江岸小区,102.7201471,25.0742593,2,222
江东境界,102.746563,25.120681,2,223
江东丽景园北苑,102.7442361,25.08386203,2,224
江东鸣翠园东区,102.7450309,25.08946247,2,225
金地九樾,102.71179,25.014807,2,226
金地兰亭广场,102.658111,25.052431,2,227
金地悦天下,102.710118,25.016467,2,228
金盾花园南区,102.7036975,24.9868736,2,229
金桂苑,102.7156584,25.01168042,2,230
金家大院,102.6675377,24.97009089,2,231
金江小区融苑,102.7475644,25.10923294,2,232
金康园,102.7126323,25.08537141,2,233
金科江湖海,102.7021055,24.95245659,2,234
金科江湖海 ,102.700969,24.956383,2,235
金科阳光里,102.736338,24.98039098,2,236
金粮花苑,102.7251329,25.01738459,2,237
金领时代,102.7509384,25.10492325,2,238
金马悦城,102.7556,25.037462,2,239
金沙公寓,102.7284775,25.06466866,2,240
金尚俊园,102.7401472,25.06904626,2,241
金尚俊园一期,102.7675563,25.27401948,2,242
金实小区,102.736268,25.0797166,2,243
金实小区春实园,102.7395466,25.08105714,2,244
金实小区求实园,102.7336552,25.08136516,2,246
金泰国际,102.677671,25.070357,2,247
金泰国际（一期）,102.6778923,25.06326641,2,248
金庭小区,102.7569604,25.07395953,2,251
金洲湾蓝屿A区,102.7266097,25.06934448,2,252
锦苑花园,102.7264982,25.00691433,2,253
锦悦四季花园小区,115.5329119,38.89751051,2,254
近华园,102.6810455,25.04474831,2,255
经典明苑,102.659092,25.055525,2,256
经开国际金融中心,102.838273,24.950106,2,257
景秀庄园,102.6944228,25.06858294,2,259
靖国新村,102.7141876,25.04393387,2,260
军安组团（人民西路132号）,102.6865432,25.0415728,2,261
俊发·逸天峰,102.73143,25.052855,2,262
俊发风华商业街,102.851692,24.894197,2,263
俊发观云海,102.773239,24.928733,2,265
俊发九夏云水,102.679276,25.001131,2,268
俊发蓝湖俊园,102.844881,24.921481,2,269
俊发澜湾俊园,102.6710791,24.98460444,2,271
俊发生态半岛滇池俊府,102.744307,24.931191,2,272
俊发生态半岛海东俊园,102.738857,24.926821,2,274
俊发盛唐城,102.7447639,25.0833258,2,276
俊发盛唐城一期,102.7524469,25.07866278,2,277
俊发时代俊园,102.82022,24.857445,2,278
俊发湾流海A3地块（琥珀俊园）,102.7601566,24.95824961,2,282
俊发新螺蛳湾澜湾俊园,102.785656,24.946134,2,283
骏信国际汽配城,102.798191,24.970025,2,286
凯旋花园,102.6921041,25.00593329,2,288
凯旋利车博汇公寓,102.7278893,24.98174071,2,289
凯茵佳园,102.7549515,25.06600189,2,290
康宏小区（宏达小区）,102.6775943,25.06107757,2,291
孔雀镇,102.845973,24.875087,2,292
昆明呈贡吾悦广场,102.82529,24.888288,2,294
昆明广场,102.730217,25.074888,2,296
昆明环球时代,102.676342,25.054739,2,298
昆明西山万达广场,102.712074,25.008227,2,299
昆明新城吾悦广场,102.665955,25.095329,2,300
昆明玉器城,102.7556963,25.17229972,2,301
昆明制药厂生活区,102.6464691,25.03600502,2,302
兰亭广场,102.6531382,25.05262013,2,303
蓝光花田国际度假区,102.8077771,24.82765993,2,304
蓝光林肯公园,102.763185,25.104541,2,306
蓝光水岸公园,102.731997,24.982349,2,307
蓝光天娇城,102.828302,24.82954,2,308
蓝色经典现代洋房,102.737128,25.06450039,2,310
澜山悦,102.5923139,24.95492479,2,311
理想小镇,102.7153145,25.00291955,2,312
丽阳星城一期,102.666212,25.07491051,2,313
良晨水逸二期,102.7165673,24.97956085,2,314
梁源小区三期,102.6619246,25.04865683,2,316
列侬溪谷,102.6667752,24.99430407,2,317
林肯公园A2地块,102.7559359,25.0942813,2,318
林业勘察设计院宿舍,102.7453003,25.05747795,2,319
霖岚国际广场,102.737375,25.060269,2,320
菱角塘搬迁组团,102.6900057,25.05556244,2,321
领秀知识城,102.99898,25.241581,2,322
刘家营西区,102.7000281,25.03419499,2,323
柳苑小区南区,102.6852139,25.02071683,2,324
龙斗壹号海岸城,102.80853,24.885449,2,325
龙湖水晶郦城,102.7030073,25.07859164,2,329
龙华花园,102.743375,25.01286814,2,330
龙腾世家,102.716011,25.078871,2,331
龙苑盛景,102.7250997,25.10290103,2,332
隆居花园,102.6816541,25.013886,2,333
路建大楼,102.745511,25.145865,2,334
螺蛳湾国际商贸城,102.775596,24.941489,2,335
螺蛳湾中心,102.719984,25.028095,2,336
骆驼湾,102.755344,25.139922,2,337
绿城·春江明月,102.745026,25.108875,2,338
绿地iHome（绿地云都会）,102.6685529,25.09388564,2,340
绿地大城天地,102.708995,25.019071,2,341
绿地滇池国际健康城,102.796376,24.829046,2,342
绿地海珀澜庭,102.687172,25.026282,2,344
绿地香树花城,102.66254,25.100458,2,345
绿地中央广场,102.66832,25.096058,2,346
绿洲花园,102.7358677,25.0304483,2,347
马街摩尔城,102.647267,25.037896,2,348
马可波罗半岛（彩云水榭）,102.6592869,24.97891828,2,349
玫瑰湾小区,102.7255317,24.98738942,2,350
美的顺城府,102.786199,25.054736,2,351
美璟欣城,102.7375715,25.10225095,2,352
美树橙,102.757581,25.0827818,2,353
魅力之城,102.7794082,24.95368027,2,354
米兰春天,102.752914,25.026344,2,355
民委西院,102.6955185,25.04587746,2,356
铭诚雅苑,102.76553,25.048515,2,357
铭惠中心,102.761399,24.934609,2,358
铭门高第,102.6951203,25.0211486,2,360
南天门,102.7311437,24.99679668,2,361
南亚风情第壹城星辰苑,102.6933145,25.01347096,2,362
南亚风情第壹城星光苑,102.6945991,25.01690229,2,363
南亚未来城（美术小区）,102.7590525,25.06440453,2,364
南苑小区地中海（水岸银沙）,102.6835303,25.0073776,2,365
南悦城,102.71776,24.985031,2,366
盘龙区检察院宿舍,102.7345963,25.07901192,2,368
七彩云南古滇名城,102.752028,24.775004,2,369
浅水湾,102.728742,25.00698996,2,371
清水佳湖雅居,102.769229,25.100981,2,372
秋苑小区,102.6605747,25.04513319,2,373
人民路壹号广场,102.689065,25.052115,2,374
日新粤寓,102.724646,25.000178,2,375
融城春晓,102.75319,25.021437,2,377
融城金阶,102.753748,25.015705,2,378
融城昆明湖,102.7585061,25.12254258,2,379
融城优郡,102.70115,25.02792,2,380
融创春风十里,102.66763,25.084679,2,381
融创孔雀镇,102.840408,24.866673,2,383
融创澜玥台,102.731201,24.980926,2,385
瑞鼎城,102.7504725,25.05810431,2,387
瑞鼎城天玺,102.74742,25.06023,2,388
润城,102.70308,25.005948,2,389
山海荟,102.698654,24.948276,2,391
山海湾,102.70558,24.946343,2,393
山水白沙,102.7746887,25.05769041,2,395
山水云亭,106.14008,34.7425273,2,396
上海东盟商务大厦,102.823755,24.882518,2,397
上游水岸一期,102.7335641,25.08840903,2,399
尚源郦城,101.5929516,24.8642128,2,400
省委党校生活区,102.6841507,25.05699921,2,401
盛高大城二期,102.6992944,25.01591736,2,402
盛高大城一期,102.6941706,25.01782088,2,403
师大西苑（建设路54号）,102.7007347,25.06146377,2,404
十二棵橡树庄园,102.7213757,25.028117,2,405
时代风华一期,102.7189301,24.99403927,2,406
时代俊园,102.826423,24.824441,2,407
实地花鹤翎,102.7024413,25.10215808,2,409
实力玖如堂,102.710157,25.079598,2,410
实力郡城,102.7452153,25.12493268,2,411
实力山语间,102.770758,25.040358,2,412
实力心城,102.830595,24.887261,2,414
实力壹方城,102.71463,25.084081,2,416
世博生态城低碳中心,102.762651,25.087977,2,417
世博生态城临山邻里,102.7597423,25.07515543,2,418
世博生态城鸣凤邻里,102.76537,25.086038,2,419
世博首岸,102.75071,25.068306,2,420
世豪·香颂时光,102.79113,25.005835,2,421
世豪香颂时光,102.784558,25.000114,2,422
世纪城叠春苑,102.7633027,24.9692297,2,424
世纪城沁春苑,102.7618825,24.97833764,2,425
书香大地,102.8500543,24.85005631,2,426
书香门第,102.742439,25.11662095,2,428
书香水岸,102.7699759,25.09309254,2,429
曙光小区,102.7470929,25.03897154,2,430
双城际商务中心,102.784667,24.951334,2,431
双铁韵城,102.838739,24.874649,2,433
水晶花园,102.7438202,25.09293365,2,435
泰旸欣城,102.7203772,25.08419501,2,436
腾龙苑,102.6745115,25.06483416,2,437
天地之间·广福郡,102.70682,24.985792,2,438
天骄北麓,102.735768,25.119492,2,440
天骄北麓南区,102.7370755,25.11609612,2,441
天怡峰景,102.7488493,25.094872,2,442
天宇·葡萄街区,102.722534,25.068695,2,443
听涛雅苑一期,102.657534,24.98682022,2,444
同德极少墅,102.6740516,24.98673648,2,445
同德锦江嘉园,102.7229056,24.99567504,2,446
万彩城,102.719302,25.081114,2,449
万彩城小区（万彩城二期）,102.7176133,25.07713425,2,450
万宏国际一期,102.7324508,25.06415856,2,451
万科城市之光,102.770426,25.052983,2,452
万科翡翠,102.73364,24.98325,2,453
万科翡翠滨江,102.70938,24.965815,2,454
万科公园里,102.787476,24.931723,2,455
万科金域水岸,102.7328425,25.07976935,2,456
万科魅力之城,102.7875179,24.95883039,2,457
万科学府,102.696577,25.069686,2,458
万科学府北区（二期）,102.7115311,25.06868525,2,459
万科银海泊岸,102.699441,24.962038,2,460
万科云子,102.665074,25.066435,2,461
万象名城（怡合景苑）,102.6682758,25.05203862,2,462
万兴花园,102.7469911,25.01925847,2,463
王大桥小区,102.768364,25.05376244,2,464
王家坝小区,102.6957397,25.03134537,2,465
未名城（紫光公寓）,102.7026104,25.00081241,2,466
五彩点金苑,102.7396405,25.00340169,2,467
五华金盾小区,102.6718674,25.0130558,2,468
西坝河小区,102.2767281,24.97330835,2,469
西仓坡,102.7199173,25.08600807,2,470
西房高新花园,102.6761526,25.07727801,2,471
西华小区夏蓉里,102.6942319,25.03295179,2,472
西华苑,102.6908576,25.02818682,2,473
西尚林居（学府公馆）,102.6953465,25.07789953,2,474
西西里和园（和园小区）,102.6638587,25.04243554,2,475
西翥园,102.6695023,25.0438633,2,476
希望汇,102.719625,24.98858,2,477
溪麓南郡,102.7848669,25.09703534,2,478
曦园,102.729805,25.118628,2,479
曦园（半山七哩溪）,102.7104278,25.12320013,2,480
夏意雅园,102.7162671,24.97846821,2,481
现代文庭,102.696205,25.065749,2,482
香榭丽园,102.7144578,25.00224419,2,483
香樟俊园二期,102.7392011,25.03435991,2,484
协信天地,102.6990928,25.06589802,2,486
新城经开区项目,102.872113,24.966374,2,487
新城吾悦广场2号地块,102.6643393,25.09022527,2,490
新时代广场,102.742429,25.114403,2,491
新闻路56号,102.7050602,25.04668008,2,492
新希望白麓城,102.658443,25.102502,2,493
新希望观澜汇,102.712971,24.981408,2,494
新亚洲水晶堡,102.6835501,25.05489348,2,496
新亚洲体育城星汇园,102.7636566,24.94805527,2,497
新亚洲体育城星汇园别墅,102.7326813,25.00512505,2,498
新亚洲万景园,102.7717385,24.96098579,2,500
新亚洲五环锋尚,102.7731564,24.99420026,2,501
新亚洲星体花园南区,102.783585,24.97690839,2,502
新亚洲星宇园,102.7730186,24.96056437,2,503
新亚洲星云园,102.7792709,24.95592855,2,504
新亚洲星泽园,102.7958586,24.95805564,2,505
新迎新城,102.74554,25.059061,2,506
新迎苑（昆明理工大学新迎校区）,102.7413272,25.05738435,2,507
新月花园,102.7118882,25.04242819,2,508
鑫都韵城,102.72525,25.024565,2,509
鑫逸苑,102.7068006,24.99943317,2,510
星光之约,102.693718,25.07480621,2,511
兴杰花园,102.6709198,25.04336158,2,512
兴景逸园,102.833595,24.942604,2,513
兴盛园,102.6606293,25.08759499,2,514
兴冶国际,102.8220978,24.89557076,2,515
兴冶国际,102.7859762,24.9011679,2,516
雪力国际,102.763025,25.04573,2,520
严家地新村,102.7032676,25.02733003,2,521
耀龙康城,102.737991,25.1043902,2,522
耀兴枫丹白露,102.819534,24.99398,2,523
耀兴枫丹白露一期,102.8166481,24.99527972,2,524
野鸭湖,102.866673,25.136288,2,525
野鸭湖酩悦台,102.878068,25.130152,2,526
野鸭湖山林别墅,102.7706909,25.12387848,2,527
怡康温泉新村,102.6975641,25.01761912,2,528
怡园小区,102.7258785,24.99024346,2,529
益龙万象城（益新万象城）,102.7382831,25.05307833,2,530
银海park酒店公寓,102.741014,24.956936,2,531
银海畅园西区,102.7561757,24.96302444,2,533
银海花园北区（银海温泉花园）,102.7460819,25.01831737,2,534
银海领域,102.7344873,25.02049264,2,536
银海尚御,102.7439487,25.01014142,2,537
银海樱花语春天里,102.7485462,24.96254332,2,538
银海樱花语幸福里,102.75334,24.963885,2,539
银河TPARK,102.843779,24.948303,2,540
银河北庭,102.74562,25.122862,2,542
银河明珠,102.733147,25.10763,2,543
银河中央,102.73821,25.113253,2,544
印象首日封北区,102.7586214,25.08409648,2,545
英茂华府,102.679684,25.065774,2,546
永昌小区永和里,102.7184558,25.02215316,2,547
涌鑫昆明之窗,102.843298,24.859905,2,548
涌鑫昆明之窗（哈佛中心二期）,102.8497599,24.86101697,2,550
雨花国际,102.830376,24.84157,2,552
雨花寰球LUXURY酒店,102.849683,24.851056,2,554
御龙春晓城,102.84292,24.93329,2,556
誉峰国际,102.751762,25.090755,2,557
园城,102.658129,25.074851,2,558
圆通街小区,102.7100754,25.05499268,2,559
远洋风景,102.731973,25.10908761,2,560
远洋新干线,102.825354,24.821294,2,561
悦中心,102.728163,25.074526,2,563
云安阳光城,102.6827229,25.06617189,2,564
云波小区南区,102.7564001,25.08619205,2,565
云大小区,102.7248634,25.09482917,2,566
云大知城佳逸盛景,102.800144,24.98007374,2,567
云福小区,102.7583694,25.09070778,2,568
云岭天骄,102.7221545,25.08764518,2,569
云岭星河庄园,102.759428,24.951897,2,570
云路中心青瓷大宅,102.735115,25.03282419,2,572
云南艺术家园,102.7250162,24.9394427,2,573
云南映象B区,102.760588,25.08817515,2,574
云南映象C区,102.7616717,25.08751829,2,575
云润天阳,102.7685594,25.09322298,2,577
云通嘉园,102.79242,25.06792,2,578
云铜时代广场（金碧路）,102.7192282,25.03890385,2,579
云投中心,102.68638,25.050262,2,580
云锡小区,102.7488341,25.022292,2,581
云溪金地,102.648575,25.085075,2,582
雲嶺·星河莊園,102.76227,24.953363,2,583
长水航城,102.944151,25.080151,2,585
招商海公馆,102.7153854,24.95216751,2,586
招商海屿城,102.728093,24.991108,2,588
招商雍景湾,102.70308,24.935631,2,590
兆丰陆芊城,102.7350098,25.01881949,2,592
置信银河广场,102.822372,24.884658,2,593
中房路易公元,102.740426,25.05018375,2,596
中国滇池花田国际度假区,102.768704,24.897124,2,597
中国铁建西派国樾,102.743552,25.001067,2,599
中海半岛华府,102.695898,24.944779,2,601
中海锦苑,102.73166,25.12047,2,603
中海龙泉公馆,102.732792,25.118947,2,604
中海云麓九里,102.797847,25.065127,2,605
中航城,102.74014,24.953411,2,606
中航云玺大宅,102.721283,24.947001,2,607
中航云玺大宅别墅,102.7631989,24.97296906,2,609
中豪·优活城,102.8488172,24.92100533,2,611
中豪广场,102.783215,24.936191,2,613
中豪逸境,102.9511348,25.08342413,2,615
中豪悦城,102.7947617,24.94329643,2,616
中和巷9号（省政协职工宿舍）,102.7103552,25.05104867,2,617
中建龙熙壹号,102.776962,25.122838,2,618
中交金地中央公园,102.740543,24.999195,2,619
中交锦绣雅郡,102.850939,24.889568,2,621
中南碧桂园樾府,102.782575,25.03362,2,623
中南云境,102.749276,24.997906,2,624
中企万派中心,102.753973,25.061594,2,626
中晟溪城,102.6597451,25.08499596,2,627
中天城理想中心,102.7322242,25.09255526,2,628
中天融域,102.7097213,24.98363841,2,629
中铁水岸青城,102.719251,24.994426,2,630
中铁云时代广场,102.667095,25.092596,2,631
中通世纪峯荟花园,102.835008,24.858507,2,632
筑友双河湾,102.705271,24.984664,2,634
紫东尚苑,102.791448,25.071873,2,635
紫东苑,102.7963257,25.0595932,2,636
棕树营小区,102.6898684,25.04667086,2,637
钻石广场,102.695574,25.037083,2,638
海口清真风味园,102.61952,24.788398,2,639
海丰收费站,102.612378,24.777145,2,640
小海口公交站,102.542871,24.85363,2,641
云南磷肥厂大桥公交站,102.556977,24.805753,2,642
桃树村公交站,102.547833,24.83421,2,643
里仁大村公交站,102.594767,24.799379,2,644
白鱼口公交站,102.65921,24.8133,2,645
观音山公交站,102.669479,24.840894,2,646
海口大桥公交站,102.611793,24.792074,2,647
云南科技实业有限责任公司依兰商场,102.526162,24.84171,2,648
中国工商银行24小时自助银行(依兰大药房南),102.527386,24.842024,2,649
云南省轻工业技工学校(依兰大药房西南),102.526743,24.840612,2,650
小七十郎山庄,102.667248,24.860576,2,651
晋宁县古城中学,102.595354,24.744451,2,652
老街学校,102.594167,24.789856,2,653
云南水泥厂,102.628941,24.786908,2,654
昆明第十八中学,102.599999,24.797248,2,655
云南艺术学院业余艺术教育海口培训中心,102.605756,24.795745,2,656
东骏大药房海口连锁店,102.606507,24.794656,2,657
云南北方光学电子集团有限公司技工学校,102.611162,24.792207,2,658
石城景区,102.589416,24.806199,2,659
云南西仪工业股份有限公司,102.592436,24.812074,2,660
又一村,102.663955,24.81094,2,661
海口特大桥,102.617653,24.781038,2,662
野山药火腿鸡风干腊排骨美食城海口店,102.620864,24.788014,2,663
云南省贸易经济学校,102.75205,25.159408,2,664
云南农业大学建筑工程学院,102.751399,25.157748,2,665
酸萝卜乌江鱼,102.613696,24.791604,2,666
白鱼口收费站,102.658508,24.795647,2,667
昆明市盘龙区小河乡卫生院,102.8428,25.200642,2,668
野猪林农庄,102.967549,25.130892,2,669
云南师范大学商学院杨林校区,103.014713,25.239984,2,670
云南大学滇池学院杨林校区,103.009129,25.237757,2,671
云南经贸外事职业学院,102.609542,24.801592,2,672
交通疗养院,102.675092,24.837829,2,673
牧场高尔夫球会,103.00129,25.186731,2,674
新华书店(云光医院东),102.612125,24.790256,2,675
收费站,102.608024,24.771049,2,676
中平村新村村民小组科技活动中心,102.556404,24.809069,2,677
恒大金碧天下(西南门),102.563471,24.894158,2,678
恒大金碧天下,102.568518,24.897563,2,679
中国信合(长水分理处),102.979933,25.129704,2,680
小哨中学,102.974097,25.17925,2,681
新源小区,102.986257,25.181576,2,682
昆明光华学校,103.004209,25.164803,2,683
观音寺(观音寺卫生院北),102.671059,24.842004,2,684
小哨邮政所,102.985222,25.181647,2,685
浅草堂景怡山庄,102.973924,25.151459,2,686
昆明实验外语学校,102.987417,25.152192,2,687
云南农业职业技术学院,102.985758,25.175347,2,688
花庄河渔村,102.990532,25.180821,2,689
三江口文化娱乐中心,102.609361,24.787663,2,690
大观楼,102.669153,25.073942,2,692
昆明国际万达广场,102.665675,25.07529,2,693
昆明医科大学第二附属医院,102.673122,25.076998,2,694
金达莱朝鲜餐厅,102.665263,24.989757,2,695
也许爱情就在洱海边,102.898339,25.054445,2,696
昆明滇池,102.895013,25.051161,2,697
东风广场地铁站A口,102.781302,25.115148,2,698
西贡码头,102.667719,24.991456,2,699
云南师范大学商学院,102.654681,25.08644,2,700
滇池大坝,102.685152,25.075085,2,701
西双版纳嘎洒国际机场,102.924931,25.072791,2,702
海丽宾雅度假酒店,102.750289,25.011792,2,703
昆明市卫生学校,102.998806,25.245207,2,705
公园1903,102.752833,25.106213,2,706
昆明云水星际大酒店,102.892911,25.053603,2,707
博众花园,102.686204,25.090872,2,708
西双版纳原始森林,102.73996,25.005169,2,709
洲际酒店,102.74661,25.005986,2,710
昆明太平大西部建材城,102.591803,24.963511,2,711
金辰办事处青龙山社区卫生服务站,102.767441,25.096406,2,712
云南留筠馆,102.658647,24.989683,2,713
西山区碧鸡凤凰社区卫生服务站,102.631409,24.990456,2,714
滇池·南郡,102.658564,24.97132,2,715
众聚园火锅店,102.680873,25.083294,2,716
康泰园,102.668412,25.004908,2,717
昆明市五华区瑞和实验学校,102.659665,25.068288,2,718
百年·明日城市,102.681564,25.07642,2,719
聂耳墓,102.640183,24.964331,2,720
正宗兰州手拉面(五华区海源流动人口卫生服务站东北),102.656741,25.091043,2,721
小小饮吧经学院店,102.657553,25.091997,2,722
海埂竹苑,102.66911,24.984279,2,723
红色农家印象,102.768052,24.99647,2,724
昆明市煌达实验学校,102.650054,25.069136,2,725
水逸康桥(西南门),102.66238,25.082039,2,726
盘龙区龙泉街道办事处兴龙卫生室,102.75521,25.128535,2,727
东航工程技术公司昆明维修基地,102.747846,24.999999,2,728
阿特拉斯·科普柯压缩机总代理,102.768463,24.994205,2,729
云南农业大学游泳池,102.758376,25.137232,2,731
香港百世德咖啡,102.748227,25.003114,2,732
中国银行昆明市团源支行,102.670309,25.069444,2,733
西山高原明珠,102.621938,24.994407,2,735
茨坝印象,102.749397,25.164767,2,736
颐和会馆,102.666908,24.979255,2,737
