name,longitude,latitude,phone,address,district,city,area,zipcodetype,datatype,date,creator,source,index
怡星园,102.72223000000001,25.03581,,,,,,,,,,,3,7671
怡星园,102.72223000000001,25.035610000000002,,,,,,,,,,,3,10981
甘草源茶餐厅,102.72299,25.03595,,,,,,,,,,,3,14417
新威龙总店,102.72266,25.03536,,,,,,,,,,,3,19804
尚义理发店,102.72289,25.03537,,,,,,,,,,,3,25161
一心堂昆明尚义街连锁店,102.722472,25.035370999999998,,,,,,,,,,,3,28235
拓东街道办事处尚义社区为民服务站,102.722228,25.036084,,,,,,,,,,,3,32286
