name,longitude,latitude,phone,address,district,city,area,zipcodetype,datatype,date,creator,source,index
郑家河村,102.67226600000001,25.010579,,,,,,,,,,,1,798
福海社区,102.671846,25.011237,,,,,,,,,,,1,4025
昕雨美容院,102.67281,25.01097,,,,,,,,,,,3,19323
美神美发美容,102.67285,25.0111,,,,,,,,,,,3,23394
西山区康福诊所,102.672877,25.010907,,,,,,,,,,,3,26452
