name,longitude,latitude,phone,address,district,city,area,zipcodetype,datatype,date,creator,source,index
铜锅洋芋饭,102.67923,25.056070000000002,,,,,,,,,,,3,6909
大维饮品,102.67875,25.05552,,,,,,,,,,,3,7318
弥勒正宗卤鸡米线,102.67931,25.055989999999998,,,,,,,,,,,3,14202
名流发型会所,102.67939,25.056070000000002,,,,,,,,,,,3,25182
昆明公路管理总段职工学校,102.67879,25.056519,,,,,,,,,,,3,35317
中国邮政储蓄银行ATM,102.67903000000001,25.055979999999998,,,,,,,,,,,3,37471
