name,longitude,latitude,phone,address,district,city,area,zipcodetype,datatype,date,creator,source,index
昆西医学综合诊所,102.6901,25.006994,,,,,,,,,,,3,26990
滇池境界二期,102.688896,25.006355,,,,,,,,,,,1,4165
渝和和记面庄全国连锁．云南店,102.6885,25.006439999999998,,,,,,,,,,,3,15770
红地网吧,102.68871,25.00679,,,,,,,,,,,3,19507
旺宏网吧,102.68861,25.00676,,,,,,,,,,,3,20515
新西南美业烫染连锁,102.68928000000001,25.006629999999998,,,,,,,,,,,3,21505
西山区惠民综合门诊部,102.688908,25.006832,,,,,,,,,,,3,25883
