name,longitude,latitude,phone,address,district,city,area,zipcodetype,datatype,date,creator,source,index
嘉康源大药房,103.148363,24.918156,,,,,,,,,,,3,27892
清远大药房,103.14974000000001,24.917757,,,,,,,,,,,3,26495
吕客松中西医结合诊所,103.149575,24.917317,,,,,,,,,,,3,27233
官氏诊所,103.1489,24.918228,,,,,,,,,,,3,27692
苏春诊所,103.148927,24.917873,,,,,,,,,,,3,28611
宜佳艺术培训中心,103.15023599999999,24.918322,,,,,,,,,,,3,35462
周梅仙诊所,103.14867,24.917718,,,,,,,,,,,3,28562
少体校跆拳道馆,103.148038,24.917938,,,,,,,,,,,3,35412
