name,longitude,latitude,phone,address,district,city,area,zipcodetype,datatype,date,creator,source,index
吴越人家,102.78949,24.97195,,,,,,,,,,,3,7311
吴越人家,102.78949,24.97175,,,,,,,,,,,3,10621
四川饭店,102.78868,24.97169,,,,,,,,,,,3,11457
重庆垫江聚满堂饭店,102.78975,24.97179,,,,,,,,,,,3,15952
齐味草墩屋,102.78967,24.971770000000003,,,,,,,,,,,3,17000
昆明市华丰羊甫大药房,102.789898,24.971772,,,,,,,,,,,3,27546
志强诊所,102.789333,24.972041,,,,,,,,,,,3,28173
瑞晶招待所,102.79046,24.97184,,,,,,,,,,,3,30145
