name,longitude,latitude,phone,address,district,city,area,zipcodetype,datatype,date,creator,source,index
锦轩茶室,102.71421,24.97416,,,,,,,,,,,3,20288
康福冷食部,102.71441,24.97511,,,,,,,,,,,3,6862
康福冷食部,102.71441,24.97491,,,,,,,,,,,3,10172
康润足浴,102.71441999999999,24.97496,,,,,,,,,,,3,19357
沁香茶室,102.71446,24.97554,,,,,,,,,,,3,20708
新星网吧,102.71431,24.974529999999998,,,,,,,,,,,3,23297
3102　BAR,102.71429,24.97445,,,,,,,,,,,3,25517
