name,longitude,latitude,phone,address,district,city,area,zipcodetype,datatype,date,creator,source,index
马记拉面馆,102.77028,24.97117,,,,,,,,,,,3,7530
马记拉面馆,102.77028,24.97097,,,,,,,,,,,3,10840
兴顺猪肚鸡罗非鱼,102.77044000000001,24.97121,,,,,,,,,,,3,13876
成都名小吃,102.7706,24.97092,,,,,,,,,,,3,16028
水城老牌羊肉米线馆,102.7702,24.97111,,,,,,,,,,,3,18608
Aｌｅｘ·J型人坊,102.77023,24.97107,,,,,,,,,,,3,22176
怀德仁药房,102.77017099999999,24.971151000000003,,,,,,,,,,,3,26336
关康诊所,102.770538,24.971097,,,,,,,,,,,3,29058
