name,longitude,latitude,phone,address,district,city,area,zipcodetype,datatype,date,creator,source,index
谦和食堂,103.00416,25.242199999999997,,,,,,,,,,,3,6018
谦和食堂,103.00416,25.241999999999997,,,,,,,,,,,3,9328
鑫圆餐厅,103.00428000000001,25.24224,,,,,,,,,,,3,11366
云南工商学院－学生八食堂,103.00431999999999,25.24229,,,,,,,,,,,3,14003
人和餐厅,103.00421999999999,25.24217,,,,,,,,,,,3,15977
农村信用社ATM,103.00415,25.24175,,,,,,,,,,,3,37066
