name,longitude,latitude,phone,address,district,city,area,zipcodetype,datatype,date,creator,source,index
阳禾招待所,102.67049,25.06409,,,,,,,,,,,3,30592
云上四季连锁酒店(昆明海源中路店),102.66933399999999,25.063556,,,,,,,,,,,1,866
昆明丽人妇科,102.66996,25.064228,,,,,,,,,,,3,26172
红阳牛菜馆,102.67185,25.063979999999997,,,,,,,,,,,3,11984
家家康健康药店黄土坡店,102.67203,25.063485999999997,,,,,,,,,,,3,25762
福林堂金马国药店,102.67141099999999,25.064127,,,,,,,,,,,3,26929
中国邮政储蓄银行黄土坡邮政储蓄所,102.66988,25.064339999999998,,,,,,,,,,,3,36382
