name,longitude,latitude,phone,address,district,city,area,zipcodetype,datatype,date,creator,source,index
实惠美食园,102.91807,25.06991,,,,,,,,,,,3,15921
弥勒农家饭店长水NO．2,102.91905,25.07033,,,,,,,,,,,3,12530
金香园农家菜,102.91949,25.0714,,,,,,,,,,,3,5481
金香园农家菜,102.91949,25.0712,,,,,,,,,,,3,8791
宣威老腿饭庄,102.91935,25.07077,,,,,,,,,,,3,15091
长水休闲山庄农家菜馆,102.9197,25.07171,,,,,,,,,,,3,24773
亮吉网吧,102.91898,25.06974,,,,,,,,,,,3,25170
