name,longitude,latitude,phone,address,district,city,area,zipcodetype,datatype,date,creator,source,index
祥香园卤面馆,102.65405,25.04502,,,,,,,,,,,3,15233
盘龙云海社区,102.653301,25.045619,,,,,,,,,,,1,2376
山地乌鸡米线连锁六店,102.65408000000001,25.04512,,,,,,,,,,,3,16435
民德生诊所,102.65338299999999,25.045314,,,,,,,,,,,3,26472
云南经贸外事学校,102.654663,25.045011,,,,,,,,,,,3,33582
