name,longitude,latitude,phone,address,district,city,area,zipcodetype,datatype,date,creator,source,index
富香源·酸菜猪脚馆,102.87692,25.02295,,,,,,,,,,,3,12688
贤慧饭店,102.87642,25.0237,,,,,,,,,,,3,13595
湘情缘湘菜馆,102.87657,25.02356,,,,,,,,,,,3,14209
酸名堂,102.87675,25.02382,,,,,,,,,,,3,14564
昭巧园,102.87680999999999,25.02374,,,,,,,,,,,3,18627
官渡区双惠诊所,102.877013,25.023377,,,,,,,,,,,3,27294
