name,longitude,latitude,phone,address,district,city,area,zipcodetype,datatype,date,creator,source,index
金剪子发艺,102.77665999999999,24.96455,,,,,,,,,,,3,20466
姐妹川菜馆,102.77748000000001,24.963820000000002,,,,,,,,,,,3,12801
浪人组合,102.77739,24.964010000000002,,,,,,,,,,,3,20467
康体浴足NO．3,102.77755,24.96368,,,,,,,,,,,3,25613
香茗居棋牌室,102.77634,24.9647,,,,,,,,,,,3,22699
