name,longitude,latitude,phone,address,district,city,area,zipcodetype,datatype,date,creator,source,index
爱丝发艺,102.7198,25.06215,,,,,,,,,,,3,23514
云南省科协青少年科技中心,102.719371,25.061293,,,,,,,,,,,1,984
三棵树乡村菜馆,102.71956999999999,25.06166,,,,,,,,,,,3,5668
自贡芗夯兔,102.71946,25.061329999999998,,,,,,,,,,,3,6265
珠江源黄山羊汤锅北大门分店,102.71956,25.06102,,,,,,,,,,,3,6560
三棵树乡村菜馆,102.71956999999999,25.06146,,,,,,,,,,,3,8978
自贡芗夯兔,102.71946,25.06113,,,,,,,,,,,3,9575
珠江源黄山羊汤锅北大门分店,102.71956,25.06082,,,,,,,,,,,3,9870
芭蕉寨,102.71927,25.06085,,,,,,,,,,,3,12482
谢氏香辣串串香,102.71948,25.061220000000002,,,,,,,,,,,3,14006
金鑫小吃,102.71968000000001,25.061770000000003,,,,,,,,,,,3,14894
胖嫂东北水饺金州湾店,102.71964,25.06167,,,,,,,,,,,3,15220
建水火鸭汤锅,102.71961999999999,25.06162,,,,,,,,,,,3,16006
新杰养身会所,102.71974,25.061989999999998,,,,,,,,,,,3,19388
尼汝,102.71955,25.06139,,,,,,,,,,,3,20167
宏康专业洗头足疗按摩,102.71973,25.061239999999998,,,,,,,,,,,3,23838
申雅美容院,102.71951999999999,25.061320000000002,,,,,,,,,,,3,23896
加减发,102.71966,25.0617,,,,,,,,,,,3,24670
康泽归雁理疗中心,102.71959,25.06152,,,,,,,,,,,3,25333
靡尚精致发型馆,102.71987,25.0616,,,,,,,,,,,3,25340
鑫光足疗,102.71989,25.06164,,,,,,,,,,,3,25635
盘龙北城中医门诊部,102.719874,25.061389000000002,,,,,,,,,,,3,26154
一心堂北大门商业街连锁店,102.719726,25.061828,,,,,,,,,,,3,28404
HAPPY　HAIR新发现店,102.72015,25.0634,,,,,,,,,,,3,19404
颐阁壹号美厨餐厅,102.72081999999999,25.062479999999997,,,,,,,,,,,3,7788
颐阁壹号美厨餐厅,102.72081999999999,25.062279999999998,,,,,,,,,,,3,11098
滇香酸菜鱼,102.72219,25.06243,,,,,,,,,,,3,5502
恒吉饮吧,102.72219,25.06243,,,,,,,,,,,3,5618
王记手工水饺,102.72219,25.06243,,,,,,,,,,,3,5818
云南省国土资源厅住宅院,102.72210799999999,25.061126,,,,,,,,,,,1,1003
颐高数码B座,102.72198490000001,25.06131554,,,,,,,,,,,1,1365
集丰北站庭院写字楼,102.722837,25.061467999999998,,,,,,,,,,,1,3586
西北手拉面,102.72183000000001,25.06094,,,,,,,,,,,3,5358
好心悦小吃店金洲湾店,102.72168,25.06192,,,,,,,,,,,3,6027
大维饮品,102.72199,25.06146,,,,,,,,,,,3,6680
古道宏厨傣家餐吧,102.72276,25.06152,,,,,,,,,,,3,7199
昆明老六卤面,102.72191,25.06185,,,,,,,,,,,3,7309
好麦上海小馄饨,102.72203,25.0615,,,,,,,,,,,3,7352
食客个旧特色米线,102.7218,25.06188,,,,,,,,,,,3,7951
西北手拉面,102.72183000000001,25.06074,,,,,,,,,,,3,8668
好心悦小吃店金洲湾店,102.72168,25.06172,,,,,,,,,,,3,9337
大维饮品,102.72199,25.06126,,,,,,,,,,,3,9990
古道宏厨傣家餐吧,102.72276,25.061320000000002,,,,,,,,,,,3,10509
昆明老六卤面,102.72191,25.06165,,,,,,,,,,,3,10619
好麦上海小馄饨,102.72203,25.0613,,,,,,,,,,,3,10662
食客个旧特色米线,102.7218,25.06168,,,,,,,,,,,3,11261
蒸知味,102.72185,25.06166,,,,,,,,,,,3,11423
兴龙小吃,102.72179,25.06062,,,,,,,,,,,3,11452
泰吉,102.72174,25.0617,,,,,,,,,,,3,12421
黄氏万丰小锅米线北京路直营店,102.72261999999999,25.061339999999998,,,,,,,,,,,3,14939
地下铁,102.72185,25.060779999999998,,,,,,,,,,,3,15197
弥勒杨氏卤鸡米线,102.72184,25.060760000000002,,,,,,,,,,,3,17419
成都担担面,102.72189,25.06096,,,,,,,,,,,3,19073
建水药膳砂锅过桥米线北京路店,102.72171999999999,25.06043,,,,,,,,,,,3,19074
源玲美疗,102.72289,25.06167,,,,,,,,,,,3,21797
甲丽净灰指甲,102.72199,25.06123,,,,,,,,,,,3,24003
YX网城逍遥时光店,102.72201,25.06161,,,,,,,,,,,3,25267
爱美森宠物医院,102.721908,25.061092000000002,,,,,,,,,,,3,25764
生达新世界大药房,102.72258599999999,25.061213000000002,,,,,,,,,,,3,28652
京王酒店连锁北站店,102.7226,25.06128,,,,,,,,,,,3,30380
胜行龙大酒店,102.7219,25.06103,,,,,,,,,,,3,30472
楚春商务酒店,102.72175,25.0605,,,,,,,,,,,3,30757
芭莎发型美容学校,102.72200600000001,25.061342,,,,,,,,,,,3,35360
北京龙文教育集团昆明第七分校,102.721727,25.060757000000002,,,,,,,,,,,3,35668
兴业银行ATM,102.72251999999999,25.06086,,,,,,,,,,,3,36362
昆明康进保险服务部,102.72178000000001,25.060579999999998,,,,,,,,,,,3,37739
香积私厨,102.72219,25.06243,,,,,,,,,,,3,6799
成都胖子极品冒菜,102.72219,25.06243,,,,,,,,,,,3,6800
滇香酸菜鱼,102.72219,25.06223,,,,,,,,,,,3,8812
恒吉饮吧,102.72219,25.06223,,,,,,,,,,,3,8928
王记手工水饺,102.72219,25.06223,,,,,,,,,,,3,9128
香积私厨,102.72219,25.06223,,,,,,,,,,,3,10109
成都胖子极品冒菜,102.72219,25.06223,,,,,,,,,,,3,10110
德意坊,102.72219,25.06223,,,,,,,,,,,3,11325
弥勒竹园子龙卤鸡卷粉连锁店,102.72123,25.06241,,,,,,,,,,,3,11844
建新园颐高店,102.72216,25.0621,,,,,,,,,,,3,14227
花花食界小吃汇,102.72219,25.06223,,,,,,,,,,,3,15945
开胃鬼富源酸菜土猪脚火锅,102.72134,25.062089999999998,,,,,,,,,,,3,17139
花都演艺娱乐总汇,102.72216,25.0621,,,,,,,,,,,3,19586
酷酷龙电子游戏室,102.72122,25.06259,,,,,,,,,,,3,19864
韵泽吕氏国际减肥吧,102.72138000000001,25.06254,,,,,,,,,,,3,22089
颜雅丽美容减肥会所,102.72138000000001,25.06254,,,,,,,,,,,3,22833
德兰之旅养身馆,102.72140999999999,25.062070000000002,,,,,,,,,,,3,25490
韦莱保险经纪公司昆明分公司,102.72166,25.06198,,,,,,,,,,,3,37507
依罐,102.72117,25.06243,,,,,,,,,,,3,12420
木子缘农家菜,102.72107,25.062170000000002,,,,,,,,,,,3,14353
临沧佤菜,102.72125,25.06211,,,,,,,,,,,3,18407
舰斌网吧,102.72,25.062829999999998,,,,,,,,,,,3,19121
悦涩,102.72104,25.06246,,,,,,,,,,,3,20564
海伦雅歌私人顶级养生会所,102.72128000000001,25.06286,,,,,,,,,,,3,22245
天姿国色养颜坊,102.72038,25.062170000000002,,,,,,,,,,,3,22729
易式盲人按摩,102.72062,25.0621,,,,,,,,,,,3,23839
黛芙妮尔五行驻颜养生馆,102.72117,25.0622,,,,,,,,,,,3,24275
瑞思学科英语（昆明·颐高）培训中心,102.721283,25.06286,,,,,,,,,,,3,35674
中艾堂养生会所,102.71956,25.06312,,,,,,,,,,,3,20155
众泰动漫,102.71955,25.06336,,,,,,,,,,,3,21282
美迪专业发型设计室,102.72033,25.06396,,,,,,,,,,,3,21340
亚妮·诗轩美容美体,102.72018,25.06351,,,,,,,,,,,3,22032
新流行前线,102.72039000000001,25.06417,,,,,,,,,,,3,22751
佳香园,102.7186,25.06383,,,,,,,,,,,3,6841
佳香园,102.7186,25.06363,,,,,,,,,,,3,10151
山城棒棒馆,102.71878000000001,25.063579999999998,,,,,,,,,,,3,12133
农家小院,102.71826999999999,25.06374,,,,,,,,,,,3,12145
银福春火锅店,102.71815,25.06377,,,,,,,,,,,3,12897
丽江边屯风味馆,102.71855,25.06365,,,,,,,,,,,3,16452
良信肉业原味小吃,102.71885,25.063579999999998,,,,,,,,,,,3,17322
抚仙湖石锅鱼生态鱼昆明总店,102.71775,25.063879999999997,,,,,,,,,,,3,17853
皇廷足步天下足道养生会所,102.71914,25.063489999999998,,,,,,,,,,,3,21283
清雅网络,102.71875,25.06333,,,,,,,,,,,3,23720
缤纷网城,102.71938,25.06342,,,,,,,,,,,3,24978
盘龙区联盟忠明路社区卫生站,102.719306,25.063485,,,,,,,,,,,3,27155
健之佳健康药房NO．099,102.71996899999999,25.062983,,,,,,,,,,,3,27173
御饮缘药行,102.72006999999999,25.063259,,,,,,,,,,,3,27798
农村信用社长青分社,102.71978,25.06305,,,,,,,,,,,3,37535
