name,longitude,latitude,phone,address,district,city,area,zipcodetype,datatype,date,creator,source,index
正宗富源酸菜猪脚火锅店,102.76409,25.05411,,,,,,,,,,,3,6053
正宗富源酸菜猪脚火锅店,102.76409,25.053910000000002,,,,,,,,,,,3,9363
鑫平农家园,102.764,25.0542,,,,,,,,,,,3,14075
荣盛源豆花饭店,102.76471,25.05451,,,,,,,,,,,3,16573
恒辰网络,102.76459,25.054489999999998,,,,,,,,,,,3,23174
信誉平价大药房,102.76485799999999,25.054292999999998,,,,,,,,,,,3,26389
盘龙恒民门诊部,102.76504200000001,25.054345,,,,,,,,,,,3,26840
源恒招待所,102.76475,25.054570000000002,,,,,,,,,,,3,30438
