name,longitude,latitude,phone,address,district,city,area,zipcodetype,datatype,date,creator,source,index
千妮专业烫染,102.68513,25.00485,,,,,,,,,,,3,22383
皇室美发会所,102.68655,25.005110000000002,,,,,,,,,,,3,20233
夏时根专业修脚屋全国NO．288,102.6856,25.00504,,,,,,,,,,,3,22897
快乐台球室,102.68613,25.00521,,,,,,,,,,,3,24186
康源旅社,102.6865,25.00521,,,,,,,,,,,3,30337
一心堂海康花园连锁店,102.685188,25.00485,,,,,,,,,,,3,27891
同心堂药品经营店杨家地店,102.684675,25.004549,,,,,,,,,,,3,29433
朋兴宾馆,102.68464,25.004939999999998,,,,,,,,,,,3,30166
