name,longitude,latitude,phone,address,district,city,area,zipcodetype,datatype,date,creator,source,index
避风塘,102.80785,24.77427,,,,,,,,,,,3,12262
七杯茶财经大学分店,102.80775,24.77413,,,,,,,,,,,3,15957
他她造型,102.80775,24.77402,,,,,,,,,,,3,21404
富滇银行ATM,102.80809,24.77456,,,,,,,,,,,3,37211
农村信用社ATM,102.80861999999999,24.77373,,,,,,,,,,,3,37443
