name,longitude,latitude,phone,address,district,city,area,zipcodetype,datatype,date,creator,source,index
蜀都农家乐,102.79921,25.08577,,,,,,,,,,,3,21818
勐海老字号赤佬烤鸡店,102.79852,25.086660000000002,,,,,,,,,,,3,12348
疯狂田鸡,102.79884,25.08675,,,,,,,,,,,3,12986
正宗沾益辣子鸡,102.79905,25.08645,,,,,,,,,,,3,17726
农村信用社ATM,102.79852,25.08632,,,,,,,,,,,3,36968
峻苇山庄,102.7988,25.08561,,,,,,,,,,,3,23150
