name,longitude,latitude,phone,address,district,city,area,zipcodetype,datatype,date,creator,source,index
彝人部落牛汤锅西南林大店,102.75301,25.060679999999998,,,,,,,,,,,3,16910
你猜吧,102.75307,25.059929999999998,,,,,,,,,,,3,22661
阿司匹林,102.75307,25.06,,,,,,,,,,,3,23342
中华麟BAR,102.7531,25.05985,,,,,,,,,,,3,24449
小酒窝,102.75303000000001,25.06054,,,,,,,,,,,3,25088
