name,longitude,latitude,phone,address,district,city,area,zipcodetype,datatype,date,creator,source,index
石林育才学校,103.275347,24.751696,,,,,,,,,,,3,35014
石林县大兴康复诊所,103.27458299999999,24.752774,,,,,,,,,,,3,26962
一心堂龙泉路连锁NO．2,103.274344,24.753022,,,,,,,,,,,3,27176
石林县彝媛药店,103.27472900000001,24.75218,,,,,,,,,,,3,28274
王葵药房志宏药店分店,103.273971,24.753053,,,,,,,,,,,3,28686
康益佳大药房,103.274906,24.751943,,,,,,,,,,,3,29163
悦航艺术文化特色培训学校,103.275347,24.751696,,,,,,,,,,,3,35165
中国陶行知教育思想实验学校,103.275347,24.751696,,,,,,,,,,,3,35975
