name,longitude,latitude,phone,address,district,city,area,zipcodetype,datatype,date,creator,source,index
富顺李记豆花鱼,103.04245999999999,25.23975,,,,,,,,,,,3,6533
富顺李记豆花鱼,103.04245999999999,25.23955,,,,,,,,,,,3,9843
四季红饭庄,103.04274000000001,25.23975,,,,,,,,,,,3,16183
福兴农家园,103.04254,25.23948,,,,,,,,,,,3,18177
馨香苑,103.04298,25.239620000000002,,,,,,,,,,,3,19374
友佳宾馆,103.04236999999999,25.2396,,,,,,,,,,,3,30736
