name,longitude,latitude,phone,address,district,city,area,zipcodetype,datatype,date,creator,source,index
新发小区,102.671019,25.041287,,,,,,,,,,,1,1591
顺发里第7栋,102.67106899999999,25.040757,,,,,,,,,,,1,2052
胜菊美容服务部,102.6712,25.04143,,,,,,,,,,,3,20354
春苑泳池,102.67076999999999,25.04101,,,,,,,,,,,3,20405
雅阁精品烫染吧,102.67087,25.04145,,,,,,,,,,,3,20499
金典美容SPA会所,102.67076999999999,25.04101,,,,,,,,,,,3,20961
西山区余丽冰中医诊所,102.67123199999999,25.041429,,,,,,,,,,,3,25914
