name,longitude,latitude,phone,address,district,city,area,zipcodetype,datatype,date,creator,source,index
摩尔多瓦园,102.768958,25.075078,,,,,,,,,,,3,31159
家·记忆,102.76966,25.0759,,,,,,,,,,,3,6566
家·记忆,102.76966,25.0757,,,,,,,,,,,3,9876
瑞士园,102.769121,25.075771,,,,,,,,,,,3,31147
英国园,102.76926999999999,25.076035,,,,,,,,,,,3,31160
三江漂流,102.76949,25.075067,,,,,,,,,,,3,31220
保加利亚园,102.769351,25.075154,,,,,,,,,,,3,31413
