name,longitude,latitude,phone,address,district,city,area,zipcodetype,datatype,date,creator,source,index
金沙山庄,102.8394,25.092570000000002,,,,,,,,,,,3,23347
农家酸菜猪脚,102.83771,25.09305,,,,,,,,,,,3,22449
鸿源祥哥弟农庄,102.83856,25.0926,,,,,,,,,,,3,22638
林睿厨房,102.83748,25.09309,,,,,,,,,,,3,24439
醉篱园,102.83707,25.093000000000004,,,,,,,,,,,3,24995
妙雨青,102.83915999999999,25.09265,,,,,,,,,,,3,23853
