name,longitude,latitude,phone,address,district,city,area,zipcodetype,datatype,date,creator,source,index
糯米粑粑,102.65956,24.96361,,,,,,,,,,,3,15773
太阳广场,102.65954,24.96334,,,,,,,,,,,3,23001
射弩场,102.65968000000001,24.96361,,,,,,,,,,,3,24681
蒙古奶茶,102.65850999999999,24.9638,,,,,,,,,,,3,13809
瑶族寨,102.659249,24.964273000000002,,,,,,,,,,,3,31178
跑马场,102.65851500000001,24.964365,,,,,,,,,,,3,31409
