name,longitude,latitude,phone,address,district,city,area,zipcodetype,datatype,date,creator,source,index
然美护肤中心,102.72895,25.061120000000003,,,,,,,,,,,3,20126
天和大厦,102.72889599999999,25.059860999999998,,,,,,,,,,,1,1964
大厂村,102.728926,25.059261,,,,,,,,,,,1,4284
靓女部落发艺店,102.72876,25.060589999999998,,,,,,,,,,,3,20238
潮人造型,102.72877,25.05999,,,,,,,,,,,3,25024
盘龙杨翠塘诊所,102.72864399999999,25.059834,,,,,,,,,,,3,25972
