name,longitude,latitude,phone,address,district,city,area,zipcodetype,datatype,date,creator,source,index
普吉社区卫生服务中心,102.671201,25.084177,,,,,,,,,,,3,28394
正宗富源红豆酸菜猪脚,102.67144,25.08511,,,,,,,,,,,3,12369
添缘菜馆,102.67081,25.085079999999998,,,,,,,,,,,3,13336
颐香缘,102.67164,25.0844,,,,,,,,,,,3,17021
建水烧烤鸡脚王,102.67156999999999,25.0847,,,,,,,,,,,3,18740
洪银招待所,102.67174,25.08456,,,,,,,,,,,3,30410
