name,longitude,latitude,phone,address,district,city,area,zipcodetype,datatype,date,creator,source,index
德福缘,102.75144,25.026429999999998,,,,,,,,,,,3,16254
老四川饭店,102.75135999999999,25.02579,,,,,,,,,,,3,16255
贵州六盘水羊肉米线面条,102.75158,25.02656,,,,,,,,,,,3,17861
鹏程中西药店,102.75169,25.026168,,,,,,,,,,,3,26001
王昌寿诊所,102.751862,25.026148000000003,,,,,,,,,,,3,26361
广济药店,102.751456,25.025967,,,,,,,,,,,3,28413
交通银行ATM,102.75197,25.02678,,,,,,,,,,,3,37372
