name,longitude,latitude,phone,address,district,city,area,zipcodetype,datatype,date,creator,source,index
开远又一家土鸡米线店,102.72494,25.11055,,,,,,,,,,,3,13532
川湘农家菜馆,102.72444,25.11101,,,,,,,,,,,3,14855
隆盛客酸菜土猪脚火锅NO．6,102.72576,25.110210000000002,,,,,,,,,,,3,18283
游戏主题网吧,102.72513000000001,25.1105,,,,,,,,,,,3,21131
五华区益寿药房,102.72425,25.110871,,,,,,,,,,,3,28168
