name,longitude,latitude,phone,address,district,city,area,zipcodetype,datatype,date,creator,source,index
富民县公安局大营派出所,102.52346700000001,25.224045,,,,,,,,,,,3,32928
富民县成长幼儿园,102.523883,25.22401,,,,,,,,,,,3,35374
大营鸿鑫便民药店,102.522386,25.224607000000002,,,,,,,,,,,3,27236
怀德仁药房,102.521985,25.224935000000002,,,,,,,,,,,3,27266
小不点幼儿园,102.522532,25.225244,,,,,,,,,,,3,34278
富民大营汽车站,102.523177,25.224307999999997,,,,,,,,,,,3,36265
