name,longitude,latitude,phone,address,district,city,area,zipcodetype,datatype,date,creator,source,index
圣心贝贝亲子幼儿之家,102.730734,25.069706,,,,,,,,,,,3,35048
顶牛面馆,102.729801,25.06927,,,,,,,,,,,1,4134
又一村食馆,102.73005,25.06907,,,,,,,,,,,3,16362
伟龙广场A幢,102.72974,25.07011,,,,,,,,,,,3,31798
镇雄县林业局驻昆办,102.729506,25.069636,,,,,,,,,,,3,32752
攀枝花矿务局供应处昆明办事处,102.729506,25.069636,,,,,,,,,,,3,32956
昆明市政府政务服务中心公安出入境分中心,102.729753,25.068996,,,,,,,,,,,3,33049
