name,longitude,latitude,phone,address,district,city,area,zipcodetype,datatype,date,creator,source,index
建水烧烤鸡脚王,102.72503,25.10437,,,,,,,,,,,3,6781
建水烧烤鸡脚王,102.72503,25.10417,,,,,,,,,,,3,10091
四婆烧烤店,102.7248,25.10431,,,,,,,,,,,3,13491
大理宾川海稍鱼,102.7256,25.10395,,,,,,,,,,,3,14886
曼等罕精致傣菜,102.72491,25.10422,,,,,,,,,,,3,18249
慧康诊所,102.72541899999999,25.104295999999998,,,,,,,,,,,3,28281
