name,longitude,latitude,phone,address,district,city,area,zipcodetype,datatype,date,creator,source,index
壹号公馆,102.72758,25.09339,,,,,,,,,,,3,11440
滇禧园滚锅牛肉,102.72761,25.09357,,,,,,,,,,,3,12431
海驰天下,102.72808,25.09315,,,,,,,,,,,3,12600
乐唐CLUB,102.7275,25.09325,,,,,,,,,,,3,20065
沐歌足疗会所,102.72748,25.09361,,,,,,,,,,,3,25677
