name,longitude,latitude,phone,address,district,city,area,zipcodetype,datatype,date,creator,source,index
禄劝薄利药店,102.466309,25.553144,,,,,,,,,,,3,25719
禄劝计划生育服务中心,102.466103,25.55336,,,,,,,,,,,3,27200
同仁牙科,102.467191,25.553019,,,,,,,,,,,3,28384
康蕊药业吉瑞堂NO．2,102.466177,25.553454000000002,,,,,,,,,,,3,28507
禄劝县房产交易中心,102.465365,25.552882999999998,,,,,,,,,,,3,33143
甫风幼儿园,102.466305,25.552328,,,,,,,,,,,3,33849
亨德森学校,102.466144,25.553019,,,,,,,,,,,3,35493
