name,longitude,latitude,phone,address,district,city,area,zipcodetype,datatype,date,creator,source,index
高张美容养生会所,102.70031,25.0708,,,,,,,,,,,3,20158
娇兰丽舍,102.7009,25.07027,,,,,,,,,,,3,23262
同福棋牌室,102.70031,25.07076,,,,,,,,,,,3,23792
广东名剪,102.70018,25.07142,,,,,,,,,,,3,25393
赛雪专业美容减肥中心NO．58,102.70026999999999,25.070970000000003,,,,,,,,,,,3,25668
正中大药房,102.700089,25.070594,,,,,,,,,,,3,28915
琴海艺术培训中心,102.700345,25.070604,,,,,,,,,,,3,34244
