name,longitude,latitude,phone,address,district,city,area,zipcodetype,datatype,date,creator,source,index
铭花都男性养生会所,102.76465,24.96764,,,,,,,,,,,3,21104
罗记重庆火锅,102.76316,24.96805,,,,,,,,,,,3,18917
帝贝主题酒店,102.76406,24.96773,,,,,,,,,,,3,29806
官渡农村合作银行ATM,102.7632,24.96807,,,,,,,,,,,3,36486
哈喽酒店,102.76475,24.96752,,,,,,,,,,,3,30671
