name,longitude,latitude,phone,address,district,city,area,zipcodetype,datatype,date,creator,source,index
加油站,102.80412,24.875787,,,,,,,,,,,3,4997
金顺园牛菜馆,102.80426999999999,24.87549,,,,,,,,,,,3,6933
加油站,102.80412,24.875587,,,,,,,,,,,3,8307
金顺园牛菜馆,102.80426999999999,24.87529,,,,,,,,,,,3,10243
六郎田鸡嫩鱼庄NO．3,102.80421,24.87613,,,,,,,,,,,3,12072
马街老字号罗非鱼庄,102.80422,24.875410000000002,,,,,,,,,,,3,12469
呈贡公路路政管理大队,102.805041,24.876053,,,,,,,,,,,3,33204
