name,longitude,latitude,phone,address,district,city,area,zipcodetype,datatype,date,creator,source,index
云南好来登酒店,102.71825,25.04223,,,,,,,,,,,3,30944
星巴克(昆明柏联广场店),102.717389,25.041751,,,,,,,,,,,1,1523
迷迭香酒吧,102.71759,25.04175,,,,,,,,,,,3,20536
未来时空主题时尚KTV,102.71765,25.041929999999997,,,,,,,,,,,3,25111
热点,102.71703000000001,25.04341,,,,,,,,,,,3,25459
云南省地税局稽查局,102.71769499999999,25.04286,,,,,,,,,,,3,32638
中国农业银行ATM,102.71825,25.04223,,,,,,,,,,,3,36483
