name,longitude,latitude,phone,address,district,city,area,zipcodetype,datatype,date,creator,source,index
凡艺美容美发工作室,102.69792,24.97273,,,,,,,,,,,3,23987
爱美阁美容美体,102.69655999999999,24.97257,,,,,,,,,,,3,23829
名作专业美发机构,102.69743000000001,24.97267,,,,,,,,,,,3,25210
东骏大药房印象花园连锁店,102.69709,24.972641,,,,,,,,,,,3,27284
一心堂滇池印象小区连锁店,102.69663800000001,24.972598,,,,,,,,,,,3,27288
