name,longitude,latitude,phone,address,district,city,area,zipcodetype,datatype,date,creator,source,index
旮旯美发沙龙,102.73708,25.04845,,,,,,,,,,,3,19427
7HOURS栖澳,102.73702,25.04834,,,,,,,,,,,3,23283
瓶客,102.73711999999999,25.04851,,,,,,,,,,,3,24383
盘龙陈寿安诊所,102.736413,25.047935,,,,,,,,,,,3,26584
昆明市盘龙区园林绿化局,102.736482,25.04802,,,,,,,,,,,3,33151
