name,longitude,latitude,phone,address,district,city,area,zipcodetype,datatype,date,creator,source,index
老麻抄手世纪城店,102.76049,24.978839999999998,,,,,,,,,,,3,12804
官渡李记小锅米线,102.76077,24.97867,,,,,,,,,,,3,13093
大理白族风味,102.76073000000001,24.97863,,,,,,,,,,,3,15837
永丰美食街,102.76080999999999,24.9788,,,,,,,,,,,3,16013
广乐福,102.76071,24.9786,,,,,,,,,,,3,16014
独领创艺造型工作室,102.76063,24.97922,,,,,,,,,,,3,20183
鹏达宾馆,102.76033000000001,24.97945,,,,,,,,,,,3,31008
