name,longitude,latitude,phone,address,district,city,area,zipcodetype,datatype,date,creator,source,index
马龙县就业管理服务中心,103.579458,25.426758,,,,,,,,,,,3,32086
东骏大药房为民康复连锁店,103.578717,25.427495,,,,,,,,,,,3,26136
健之佳健康药房,103.579645,25.427364999999998,,,,,,,,,,,3,27878
老百姓大药房马龙店,103.578631,25.427697,,,,,,,,,,,3,28109
马龙县政府法制办公室,103.578342,25.42807,,,,,,,,,,,3,32112
马龙县劳动和社会保障局,103.579458,25.426758,,,,,,,,,,,3,32214
马龙县公安局,103.579382,25.426824,,,,,,,,,,,3,32418
马龙城乡客运站,103.57981,25.427395999999998,,,,,,,,,,,3,36222
