name,longitude,latitude,phone,address,district,city,area,zipcodetype,datatype,date,creator,source,index
沃格李氏草酸汤鸡NO．1,102.74249,25.1212,,,,,,,,,,,3,14755
宣威正宗老火腿,102.74244,25.12099,,,,,,,,,,,3,16371
张保长重庆老火锅,102.74249,25.1212,,,,,,,,,,,3,18832
鑫鑫棋牌室,102.74284,25.12141,,,,,,,,,,,3,22926
生达新世界大药房,102.742378,25.120922,,,,,,,,,,,3,28179
巧家县政府驻昆明办,102.742114,25.120607,,,,,,,,,,,3,33132
农村信用社ATM,102.74279,25.12133,,,,,,,,,,,3,36875
