name,longitude,latitude,phone,address,district,city,area,zipcodetype,datatype,date,creator,source,index
淑康按摩足疗室,102.66434,25.06356,,,,,,,,,,,3,20400
尊尼烫染沙龙,102.6645,25.063589999999998,,,,,,,,,,,3,20401
顶呱呱推拿,102.66445,25.063579999999998,,,,,,,,,,,3,21058
昆明仁泽药业有限公司,102.664198,25.063619,,,,,,,,,,,3,28601
昆明车辆施救中心第二施救站,102.66519699999999,25.06319,,,,,,,,,,,3,33218
