name,longitude,latitude,phone,address,district,city,area,zipcodetype,datatype,date,creator,source,index
德克士昆明站餐厅,102.72211,25.01618,,,,,,,,,,,3,12290
康师傅私房牛肉面馆－昆明站分店,102.72202,25.016170000000002,,,,,,,,,,,3,12291
建新园昆明站店,102.72219,25.016189999999998,,,,,,,,,,,3,12292
昆明火车站,102.72174670000001,25.01523444,,,,,,,,,,,1,3151
铁道宾馆,102.72180999999999,25.01613,,,,,,,,,,,3,30341
富滇银行ATM,102.72149,25.0161,,,,,,,,,,,3,37703
中国民生银行ATM,102.72193,25.01616,,,,,,,,,,,3,37514
