name,longitude,latitude,phone,address,district,city,area,zipcodetype,datatype,date,creator,source,index
自家厨房,102.77418,24.976760000000002,,,,,,,,,,,3,18560
金龙网吧,102.77438000000001,24.9766,,,,,,,,,,,3,21729
云桥园温泉浴场,102.77423,24.97634,,,,,,,,,,,3,23147
官渡区红十字会医院,102.7739,24.976987,,,,,,,,,,,3,28707
昆明市小板桥街道办,102.77480899999999,24.977135999999998,,,,,,,,,,,3,32695
