name,longitude,latitude,phone,address,district,city,area,zipcodetype,datatype,date,creator,source,index
高古楼,102.551724,24.428086999999998,,,,,,,,,,,3,31536
丽兴药店,102.552678,24.428655,,,,,,,,,,,3,26328
蓝天大药房,102.553267,24.428842000000003,,,,,,,,,,,3,27088
百姓平价药房北城NO．1,102.552288,24.428010999999998,,,,,,,,,,,3,27754
花仙子幼儿园,102.553175,24.428727,,,,,,,,,,,3,35143
