name,longitude,latitude,phone,address,district,city,area,zipcodetype,datatype,date,creator,source,index
一道门尚品家宴,102.74494,25.0545,,,,,,,,,,,3,12733
昆明教育电视台,102.745751,25.053449,,,,,,,,,,,1,3137
昆明广播电视大学,102.745751,25.053449,,,,,,,,,,,1,3180
昆明城市经济学校,102.745751,25.053449,,,,,,,,,,,1,3248
生达新世界大药房,102.74616400000001,25.053573999999998,,,,,,,,,,,3,27833
豆叮趣味音乐指导室金色俊园店,102.746115,25.053619,,,,,,,,,,,3,35575
华泰保险专属代理,102.74573000000001,25.05409,,,,,,,,,,,3,36552
平安银行ATM,102.74492,25.054570000000002,,,,,,,,,,,3,36816
