name,longitude,latitude,phone,address,district,city,area,zipcodetype,datatype,date,creator,source,index
宝珠山庄,102.634456,25.044729,,,,,,,,,,,1,4464
宝珠生态公园,102.636163,25.044860999999997,,,,,,,,,,,1,4463
大理白族风味小吃,102.6353,25.04499,,,,,,,,,,,3,14206
大理人家,102.63566999999999,25.045460000000002,,,,,,,,,,,3,17791
昆明市五华区远方学校,102.634517,25.044318,,,,,,,,,,,3,34478
