name,longitude,latitude,phone,address,district,city,area,zipcodetype,datatype,date,creator,source,index
宝·洛·沙高级女子美容会所关上店,102.73955,25.00943,,,,,,,,,,,3,19234
乳鸽皇酒楼,102.73987,25.01042,,,,,,,,,,,3,6474
乳鸽皇酒楼,102.73987,25.01022,,,,,,,,,,,3,9784
抚仙湖石锅鱼坊,102.73911,25.01075,,,,,,,,,,,3,18040
兰馨美容院,102.73963,25.010479999999998,,,,,,,,,,,3,21871
中格松源养生会所,102.73934,25.01016,,,,,,,,,,,3,22580
兴业银行官渡支行,102.73940999999999,25.01031,,,,,,,,,,,3,36848
