name,longitude,latitude,phone,address,district,city,area,zipcodetype,datatype,date,creator,source,index
伟林羊肉馆,102.74175,25.08115,,,,,,,,,,,3,7754
伟林羊肉馆,102.74175,25.08095,,,,,,,,,,,3,11064
味怡厨房,102.7416,25.080389999999998,,,,,,,,,,,3,11728
抚仙湖石锅鱼,102.74184,25.080679999999997,,,,,,,,,,,3,12322
团山同馨带皮小黄牛米线昆明店,102.7417,25.081039999999998,,,,,,,,,,,3,16426
鑫鑫金草墩,102.74167,25.081129999999998,,,,,,,,,,,3,17236
昆明市教工第一幼儿园江东丽景园分园,102.74145,25.080883,,,,,,,,,,,3,34010
