name,longitude,latitude,phone,address,district,city,area,zipcodetype,datatype,date,creator,source,index
大维饮品,102.82911,24.831310000000002,,,,,,,,,,,3,12314
慕濏甜品专门店,102.82941,24.83191,,,,,,,,,,,3,12379
润甜心甜品店,102.82945,24.83199,,,,,,,,,,,3,16992
云艺商务会所,102.82937,24.83168,,,,,,,,,,,3,30574
交通银行ATM,102.82935,24.83155,,,,,,,,,,,3,37632
