name,longitude,latitude,phone,address,district,city,area,zipcodetype,datatype,date,creator,source,index
昭通天麻火腿鸡昆明NO．5,102.6866,25.016820000000003,,,,,,,,,,,3,19118
酸汤鸡,102.68760999999999,25.01677,,,,,,,,,,,3,12129
香辣爽糊辣鱼,102.68677,25.01666,,,,,,,,,,,3,13644
红运川菜馆,102.68741,25.01683,,,,,,,,,,,3,15970
致酷网吧,102.68689,25.016820000000003,,,,,,,,,,,3,21415
新船房小区综合门诊部,102.68786899999999,25.016701,,,,,,,,,,,3,25904
德信大药房连锁NO．4,102.686421,25.016365,,,,,,,,,,,3,29192
