name,longitude,latitude,phone,address,district,city,area,zipcodetype,datatype,date,creator,source,index
贵州六盘水羊肉米线,102.73591,24.95196,,,,,,,,,,,3,11347
川记十八子富顺豆花饭,102.73624000000001,24.95179,,,,,,,,,,,3,14050
正吉诊所,102.735777,24.951982,,,,,,,,,,,3,28845
金阳宾馆,102.73607,24.95198,,,,,,,,,,,3,29804
福发旅馆,102.73675,24.95195,,,,,,,,,,,3,29862
玉龙招待所,102.7356,24.95169,,,,,,,,,,,3,30605
官渡区后所双语幼儿园,102.735344,24.951738,,,,,,,,,,,3,33874
昆明市官渡区兴杰学校,102.736329,24.952167000000003,,,,,,,,,,,3,35280
