name,longitude,latitude,phone,address,district,city,area,zipcodetype,datatype,date,creator,source,index
健明小吃,102.66596,25.04317,,,,,,,,,,,3,15624
大理风味华素饭店,102.66608000000001,25.04334,,,,,,,,,,,3,16710
华美轩饭店,102.66605,25.04325,,,,,,,,,,,3,17161
昆明惟朗特肿瘤药品公司,102.666271,25.043625,,,,,,,,,,,3,27006
昆明康健肿瘤咨询处,102.66632299999999,25.043744,,,,,,,,,,,3,27175
梁源社区幼儿园,102.66634599999999,25.043804,,,,,,,,,,,3,36014
