name,longitude,latitude,phone,address,district,city,area,zipcodetype,datatype,date,creator,source,index
马龙花蕾幼儿园,103.577548,25.426885000000002,,,,,,,,,,,3,34226
鸿康平价大药房,103.578672,25.426084,,,,,,,,,,,3,27053
通泉镇社区卫生服务中心,103.578714,25.425174,,,,,,,,,,,3,26653
李鸿荣内科诊所,103.578416,25.425432,,,,,,,,,,,3,27554
马龙县商务局,103.578211,25.426435,,,,,,,,,,,3,32023
