name,longitude,latitude,phone,address,district,city,area,zipcodetype,datatype,date,creator,source,index
兰州牛肉拉面,102.73439,25.04167,,,,,,,,,,,3,13202
弥勒竹园凤皇宴卤鸡米线NO．6,102.73419,25.0416,,,,,,,,,,,3,13203
现代名人形象发艺沙龙,102.73419,25.04186,,,,,,,,,,,3,25195
昆明市图书馆,102.7341261,25.0400658,,,,,,,,,,,1,2946
和平酒店,102.73356,25.04048,,,,,,,,,,,3,29807
昆明长途通信枢纽大楼,102.73398,25.04087,,,,,,,,,,,3,31737
