name,longitude,latitude,phone,address,district,city,area,zipcodetype,datatype,date,creator,source,index
海阔天空温泉大澡堂,102.7486,25.0053,,,,,,,,,,,3,20963
机场文化广场,102.74949000000001,25.006535,,,,,,,,,,,1,3602
代胖娃成都老妈蹄花,102.74923000000001,25.00589,,,,,,,,,,,3,11949
抚仙湖生态石锅鱼,102.74967,25.0059,,,,,,,,,,,3,12568
阮家村猪脚,102.74961,25.00591,,,,,,,,,,,3,14669
中国人保财险施救中心,102.74903,25.00589,,,,,,,,,,,3,37649
海捷招待所,102.7486,25.0053,,,,,,,,,,,3,30159
